:Lap,:LapTime,:Time,IMU_accel_lat,IMU_accel_long,IMU_accel_temp,IMU_accel_vert,IMU_pitch,IMU_roll,IMU_yaw,Shift Air Pressure:Sensor,Speed Input,Speed_Limit,Speed_Limit:Value,Start/Stop Button,Steering Angle,TPS,WSS_FL,WSS_FR,WSS_RL,WSS_RR,Wakeup_Flag,Wakeup_Flag:Value
0,69.803,69.803,0.462,-0.08,26.5,0.85,2.9,-1,0.4,8,0,0,0,0,2,88.4,0,0,0,0,0,0
0,69.808,69.808,0.462,-0.08,26.5,0.85,2.9,-1,0.4,8,0,0,0,0,2,88.4,0,0,0,0,0,0
0,69.813,69.813,0.462,-0.08,26.5,0.85,2.9,-1,0.4,25,0,0,0,0,2,88.4,0,0,0,0,0,0
0,69.818,69.818,0.462,-0.08,26.5,0.85,2.9,-1,0.4,25,0,0,0,0,2,88.4,0,0,0,0,0,0
0,69.823,69.823,0.458,-0.164,26.5,0.873,-1,-1.8,0.3,27,0,0,0,0,2,70,0,0,0,0,0,0
0,69.828,69.828,0.458,-0.164,26.5,0.873,-1,-1.8,0.3,27,0,0,0,0,2,70,0,0,0,0,0,0
0,69.833,69.833,0.458,-0.164,26.5,0.873,-1,-1.8,0.3,12,0,0,0,0,2,70,0,0,0,0,0,0
0,69.838,69.838,0.458,-0.164,26.5,0.873,-1,-1.8,0.3,12,0,0,0,0,2,70,0,0,0,0,0,0
0,69.843,69.843,0.467,-0.15,26.5,0.951,-2.5,1.4,-1.3,9,0,0,0,0,2,43,0,0,0,0,0,0
0,69.848,69.848,0.467,-0.15,26.5,0.951,-2.5,1.4,-1.3,9,0,0,0,0,2,43,0,0,0,0,0,0
0,69.853,69.853,0.467,-0.15,26.5,0.951,-2.5,1.4,-1.3,8,0,0,0,0,2,43,0,0,0,0,0,0
0,69.858,69.858,0.467,-0.15,26.5,0.951,-2.5,1.4,-1.3,8,0,0,0,0,2,43,0,0,0,0,0,0
0,69.863,69.863,0.456,-0.117,26.5,0.95,1.8,0.3,0,0,0,0,0,0,2,16.8,0,0,0,0,0,0
0,69.868,69.868,0.456,-0.117,26.5,0.95,1.8,0.3,0,0,0,0,0,0,2,16.8,0,0,0,0,0,0
0,69.873,69.873,0.456,-0.117,26.5,0.95,1.8,0.3,0,12,0,0,0,0,2,16.8,0,0,0,0,0,0
0,69.878,69.878,0.456,-0.117,26.5,0.95,1.8,0.3,0,12,0,0,0,0,2,16.8,0,0,0,0,0,0
0,69.883,69.883,0.469,-0.058,26.5,0.898,2.4,-1.1,0,9,0,0,0,0,2,11.6,0,0,0,0,0,0
0,69.888,69.888,0.469,-0.058,26.5,0.898,2.4,-1.1,0,9,0,0,0,0,2,11.6,0,0,0,0,0,0
0,69.893,69.893,0.469,-0.058,26.5,0.898,2.4,-1.1,0,10,0,0,0,0,2,11.6,0,0,0,0,0,0
0,69.898,69.898,0.469,-0.058,26.5,0.898,2.4,-1.1,0,10,0,0,0,0,2,11.6,0,0,0,0,0,0
0,69.903,69.903,0.427,0,26.5,0.893,0.6,-0.6,-0.5,9,0,0,0,0,2,21.2,0,0,0,0,0,0
0,69.908,69.908,0.427,0,26.5,0.893,0.6,-0.6,-0.5,9,0,0,0,0,2,21.2,0,0,0,0,0,0
0,69.913,69.913,0.427,0,26.5,0.893,0.6,-0.6,-0.5,8,0,0,0,0,2,21.2,0,0,0,0,0,0
0,69.918,69.918,0.427,0,26.5,0.893,0.6,-0.6,-0.5,8,0,0,0,0,2,21.2,0,0,0,0,0,0
0,69.923,69.923,0.451,-0.054,26.5,0.883,-1.4,0.7,-0.7,9,0,0,0,0,2,24.2,0,0,0,0,0,0
0,69.928,69.928,0.451,-0.054,26.5,0.883,-1.4,0.7,-0.7,9,0,0,0,0,2,24.2,0,0,0,0,0,0
0,69.933,69.933,0.451,-0.054,26.5,0.883,-1.4,0.7,-0.7,0,0,0,0,0,2,24.2,0,0,0,0,0,0
0,69.938,69.938,0.451,-0.054,26.5,0.883,-1.4,0.7,-0.7,0,0,0,0,0,2,24.2,0,0,0,0,0,0
0,69.943,69.943,0.468,-0.156,26.5,0.947,-1.2,0.4,0.2,16,0,0,0,0,2,20.7,0,0,0,0,0,0
0,69.948,69.948,0.468,-0.156,26.5,0.947,-1.2,0.4,0.2,16,0,0,0,0,2,20.7,0,0,0,0,0,0
0,69.953,69.953,0.468,-0.156,26.5,0.947,-1.2,0.4,0.2,12,0,0,0,0,1,20.7,0,0,0,0,0,0
0,69.958,69.958,0.468,-0.156,26.5,0.947,-1.2,0.4,0.2,12,0,0,0,0,1,20.7,0,0,0,0,0,0
0,69.963,69.963,0.447,-0.162,26.5,0.976,-0.7,0.3,-1.1,13,0,0,0,0,2,20.6,0,0,0,0,0,0
0,69.968,69.968,0.447,-0.162,26.5,0.976,-0.7,0.3,-1.1,13,0,0,0,0,2,20.6,0,0,0,0,0,0
0,69.973,69.973,0.447,-0.162,26.5,0.976,-0.7,0.3,-1.1,9,0,0,0,0,2,20.6,0,0,0,0,0,0
0,69.978,69.978,0.447,-0.162,26.5,0.976,-0.7,0.3,-1.1,9,0,0,0,0,2,20.6,0,0,0,0,0,0
0,69.983,69.983,0.444,-0.061,26.5,0.872,2.3,-0.8,0.4,7,0,0,0,0,2,22.2,0,0,0,0,0,0
0,69.988,69.988,0.444,-0.061,26.5,0.872,2.3,-0.8,0.4,7,0,0,0,0,2,22.2,0,0,0,0,0,0
0,69.993,69.993,0.444,-0.061,26.5,0.872,2.3,-0.8,0.4,14,0,0,0,0,2,22.2,0,0,0,0,0,0
0,69.998,69.998,0.444,-0.061,26.5,0.872,2.3,-0.8,0.4,14,0,0,0,0,2,22.2,0,0,0,0,0,0
0,70.003,70.003,0.448,-0.106,26.5,0.865,1.6,-0.8,0.9,8,0,0,0,0,2,31.1,0,0,0,0,0,0
0,70.008,70.008,0.448,-0.106,26.5,0.865,1.6,-0.8,0.9,8,0,0,0,0,2,31.1,0,0,0,0,0,0
0,70.013,70.013,0.448,-0.106,26.5,0.865,1.6,-0.8,0.9,12,0,0,0,0,2,31.1,0,0,0,0,0,0
0,70.018,70.018,0.448,-0.106,26.5,0.865,1.6,-0.8,0.9,12,0,0,0,0,2,31.1,0,0,0,0,0,0
0,70.023,70.023,0.467,-0.126,26.5,0.937,-1.6,0.1,-1.3,8,0,0,0,0,2,47,0,0,0,0,0,0
0,70.028,70.028,0.467,-0.126,26.5,0.937,-1.6,0.1,-1.3,8,0,0,0,0,2,47,0,0,0,0,0,0
0,70.033,70.033,0.467,-0.126,26.5,0.937,-1.6,0.1,-1.3,8,0,0,0,0,2,47,0,0,0,0,0,0
0,70.038,70.038,0.467,-0.126,26.5,0.937,-1.6,0.1,-1.3,8,0,0,0,0,2,47,0,0,0,0,0,0
0,70.043,70.043,0.436,-0.133,26.5,0.918,-0.7,0.2,0.2,8,0,0,0,0,2,65.8,0,0,0,0,0,0
0,70.048,70.048,0.436,-0.133,26.5,0.918,-0.7,0.2,0.2,8,0,0,0,0,2,65.8,0,0,0,0,0,0
0,70.053,70.053,0.436,-0.133,26.5,0.918,-0.7,0.2,0.2,8,0,0,0,0,2,65.8,0,0,0,0,0,0
0,70.058,70.058,0.436,-0.133,26.5,0.918,-0.7,0.2,0.2,8,0,0,0,0,2,65.8,0,0,0,0,0,0
0,70.063,70.063,0.433,-0.098,26.5,0.859,-0.4,0.6,-0.8,12,0,0,0,0,2,85.1,0,0,0,0,0,0
0,70.068,70.068,0.433,-0.098,26.5,0.859,-0.4,0.6,-0.8,12,0,0,0,0,2,85.1,0,0,0,0,0,0
0,70.073,70.073,0.433,-0.098,26.5,0.859,-0.4,0.6,-0.8,9,0,0,0,0,2,85.1,0,0,0,0,0,0
0,70.078,70.078,0.433,-0.098,26.5,0.859,-0.4,0.6,-0.8,9,0,0,0,0,2,85.1,0,0,0,0,0,0
0,70.083,70.083,0.483,-0.082,26.5,0.925,0.7,0.6,-0.6,11,0,0,0,0,2,96.2,0,0,0,0,0,0
0,70.088,70.088,0.483,-0.082,26.5,0.925,0.7,0.6,-0.6,11,0,0,0,0,2,96.2,0,0,0,0,0,0
0,70.093,70.093,0.483,-0.082,26.5,0.925,0.7,0.6,-0.6,8,0,0,0,0,2,96.2,0,0,0,0,0,0
0,70.098,70.098,0.483,-0.082,26.5,0.925,0.7,0.6,-0.6,8,0,0,0,0,2,96.2,0,0,0,0,0,0
0,70.103,70.103,0.449,-0.154,26.5,0.94,-0.9,-0.6,0.1,10,0,0,0,0,2,94.8,0,0,0,0,0,0
0,70.108,70.108,0.449,-0.154,26.5,0.94,-0.9,-0.6,0.1,10,0,0,0,0,2,94.8,0,0,0,0,0,0
0,70.113,70.113,0.449,-0.154,26.5,0.94,-0.9,-0.6,0.1,5,0,0,0,0,2,94.8,0,0,0,0,0,0
0,70.118,70.118,0.449,-0.154,26.5,0.94,-0.9,-0.6,0.1,5,0,0,0,0,2,94.8,0,0,0,0,0,0
0,70.123,70.123,0.412,-0.05,26.5,0.888,0.9,1.4,-1.6,0,0,0,0,0,2,91.4,0,0,0,0,0,0
0,70.128,70.128,0.412,-0.05,26.5,0.888,0.9,1.4,-1.6,0,0,0,0,0,2,91.4,0,0,0,0,0,0
0,70.133,70.133,0.412,-0.05,26.5,0.888,0.9,1.4,-1.6,9,0,0,0,0,2,91.4,0,0,0,0,0,0
0,70.138,70.138,0.412,-0.05,26.5,0.888,0.9,1.4,-1.6,9,0,0,0,0,2,91.4,0,0,0,0,0,0
0,70.143,70.143,0.427,-0.054,26.5,0.881,1,0.7,-0.3,10,0,0,0,0,2,82.6,0,0,0,0,0,0
0,70.148,70.148,0.427,-0.054,26.5,0.881,1,0.7,-0.3,10,0,0,0,0,2,82.6,0,0,0,0,0,0
0,70.153,70.153,0.427,-0.054,26.5,0.881,1,0.7,-0.3,8,0,0,0,0,2,82.6,0,0,0,0,0,0
0,70.158,70.158,0.427,-0.054,26.5,0.881,1,0.7,-0.3,8,0,0,0,0,2,82.6,0,0,0,0,0,0
0,70.163,70.163,0.5,-0.189,26.5,0.958,-0.6,-2.3,0.8,8,0,0,0,0,2,61.2,0,0,0,0,0,0
0,70.168,70.168,0.5,-0.189,26.5,0.958,-0.6,-2.3,0.8,8,0,0,0,0,2,61.2,0,0,0,0,0,0
0,70.173,70.173,0.5,-0.189,26.5,0.958,-0.6,-2.3,0.8,10,0,0,0,0,2,61.2,0,0,0,0,0,0
0,70.178,70.178,0.5,-0.189,26.5,0.958,-0.6,-2.3,0.8,10,0,0,0,0,2,61.2,0,0,0,0,0,0
0,70.183,70.183,0.488,-0.194,26.5,0.977,-1.4,-0.9,0.1,9,0,0,0,0,2,33.4,0,0,0,0,0,0
0,70.188,70.188,0.488,-0.194,26.5,0.977,-1.4,-0.9,0.1,9,0,0,0,0,2,33.4,0,0,0,0,0,0
0,70.193,70.193,0.488,-0.194,26.5,0.977,-1.4,-0.9,0.1,8,0,0,0,0,2,33.4,0,0,0,0,0,0
0,70.198,70.198,0.488,-0.194,26.5,0.977,-1.4,-0.9,0.1,8,0,0,0,0,2,33.4,0,0,0,0,0,0
0,70.203,70.203,0.473,-0.033,26.5,0.91,1.2,-0.8,0.3,17,0,0,0,0,2,12.9,0,0,0,0,0,0
0,70.208,70.208,0.473,-0.033,26.5,0.91,1.2,-0.8,0.3,17,0,0,0,0,2,12.9,0,0,0,0,0,0
0,70.213,70.213,0.473,-0.033,26.5,0.91,1.2,-0.8,0.3,12,0,0,0,0,2,12.9,0,0,0,0,0,0
0,70.218,70.218,0.473,-0.033,26.5,0.91,1.2,-0.8,0.3,12,0,0,0,0,2,12.9,0,0,0,0,0,0
0,70.223,70.223,0.444,-0.094,26.5,0.906,-1,-0.7,-0.9,16,0,0,0,0,2,14.2,0,0,0,0,0,0
0,70.228,70.228,0.444,-0.094,26.5,0.906,-1,-0.7,-0.9,16,0,0,0,0,2,14.2,0,0,0,0,0,0
0,70.233,70.233,0.444,-0.094,26.5,0.906,-1,-0.7,-0.9,14,0,0,0,0,2,14.2,0,0,0,0,0,0
0,70.238,70.238,0.444,-0.094,26.5,0.906,-1,-0.7,-0.9,14,0,0,0,0,2,14.2,0,0,0,0,0,0
0,70.243,70.243,0.434,-0.089,26.5,0.875,-1.5,0.2,-0.7,9,0,0,0,0,2,23.9,0,0,0,0,0,0
0,70.248,70.248,0.434,-0.089,26.5,0.875,-1.5,0.2,-0.7,9,0,0,0,0,2,23.9,0,0,0,0,0,0
0,70.253,70.253,0.434,-0.089,26.5,0.875,-1.5,0.2,-0.7,12,0,0,0,0,2,23.9,0,0,0,0,0,0
0,70.258,70.258,0.434,-0.089,26.5,0.875,-1.5,0.2,-0.7,12,0,0,0,0,2,23.9,0,0,0,0,0,0
0,70.263,70.263,0.443,-0.097,26.5,0.861,0.1,1.1,-0.4,12,0,0,0,0,2,24.7,0,0,0,0,0,0
0,70.268,70.268,0.443,-0.097,26.5,0.861,0.1,1.1,-0.4,12,0,0,0,0,2,24.7,0,0,0,0,0,0
0,70.273,70.273,0.443,-0.097,26.5,0.861,0.1,1.1,-0.4,9,0,0,0,0,2,24.7,0,0,0,0,0,0
0,70.278,70.278,0.443,-0.097,26.5,0.861,0.1,1.1,-0.4,9,0,0,0,0,2,24.7,0,0,0,0,0,0
0,70.283,70.283,0.455,-0.089,26.5,0.868,0.7,-0.1,0.1,12,0,0,0,0,2,27.7,0,0,0,0,0,0
0,70.288,70.288,0.455,-0.089,26.5,0.868,0.7,-0.1,0.1,12,0,0,0,0,2,27.7,0,0,0,0,0,0
0,70.293,70.293,0.455,-0.089,26.5,0.868,0.7,-0.1,0.1,8,0,0,0,0,2,27.7,0,0,0,0,0,0
0,70.298,70.298,0.455,-0.089,26.5,0.868,0.7,-0.1,0.1,8,0,0,0,0,2,27.7,0,0,0,0,0,0
0,70.303,70.303,0.46,-0.07,26.5,0.86,1.8,-1,1.1,9,0,0,0,0,2,40.6,0,0,0,0,0,0
0,70.308,70.308,0.46,-0.07,26.5,0.86,1.8,-1,1.1,9,0,0,0,0,2,40.6,0,0,0,0,0,0
0,70.313,70.313,0.46,-0.07,26.5,0.86,1.8,-1,1.1,8,0,0,0,0,2,40.6,0,0,0,0,0,0
0,70.318,70.318,0.46,-0.07,26.5,0.86,1.8,-1,1.1,8,0,0,0,0,2,40.6,0,0,0,0,0,0
0,70.323,70.323,0.46,-0.118,26.5,0.944,-0.1,-0.5,0,9,0,0,0,0,2,58.3,0,0,0,0,0,0
0,70.328,70.328,0.46,-0.118,26.5,0.944,-0.1,-0.5,0,9,0,0,0,0,2,58.3,0,0,0,0,0,0
0,70.333,70.333,0.46,-0.118,26.5,0.944,-0.1,-0.5,0,9,0,0,0,0,2,58.3,0,0,0,0,0,0
0,70.338,70.338,0.46,-0.118,26.5,0.944,-0.1,-0.5,0,9,0,0,0,0,2,58.3,0,0,0,0,0,0
0,70.343,70.343,0.442,-0.182,26.5,0.97,-3,-0.5,-0.6,9,0,0,0,0,2,77.2,0,0,0,0,0,0
0,70.348,70.348,0.442,-0.182,26.5,0.97,-3,-0.5,-0.6,9,0,0,0,0,2,77.2,0,0,0,0,0,0
0,70.353,70.353,0.442,-0.182,26.5,0.97,-3,-0.5,-0.6,10,0,0,0,0,3,77.2,0,0,0,0,0,0
0,70.358,70.358,0.442,-0.182,26.5,0.97,-3,-0.5,-0.6,10,0,0,0,0,3,77.2,0,0,0,0,0,0
0,70.363,70.363,0.451,-0.093,26.5,0.866,-0.8,1.6,-1.3,10,0,0,0,0,2,90.1,0,0,0,0,0,0
0,70.368,70.368,0.451,-0.093,26.5,0.866,-0.8,1.6,-1.3,10,0,0,0,0,2,90.1,0,0,0,0,0,0
0,70.373,70.373,0.451,-0.093,26.5,0.866,-0.8,1.6,-1.3,9,0,0,0,0,2,90.1,0,0,0,0,0,0
0,70.378,70.378,0.451,-0.093,26.5,0.866,-0.8,1.6,-1.3,9,0,0,0,0,2,90.1,0,0,0,0,0,0
0,70.383,70.383,0.445,-0.06,26.5,0.836,4.1,0.1,0.2,8,0,0,0,0,2,92.4,0,0,0,0,0,0
0,70.388,70.388,0.445,-0.06,26.5,0.836,4.1,0.1,0.2,8,0,0,0,0,2,92.4,0,0,0,0,0,0
0,70.393,70.393,0.445,-0.06,26.5,0.836,4.1,0.1,0.2,7,0,0,0,0,2,92.4,0,0,0,0,0,0
0,70.398,70.398,0.445,-0.06,26.5,0.836,4.1,0.1,0.2,7,0,0,0,0,2,92.4,0,0,0,0,0,0
0,70.403,70.403,0.478,-0.163,26.5,0.901,0.7,-1.7,0.7,8,0,0,0,0,2,93.1,0,0,0,0,0,0
0,70.408,70.408,0.478,-0.163,26.5,0.901,0.7,-1.7,0.7,8,0,0,0,0,2,93.1,0,0,0,0,0,0
0,70.413,70.413,0.478,-0.163,26.5,0.901,0.7,-1.7,0.7,9,0,0,0,0,2,93.1,0,0,0,0,0,0
0,70.418,70.418,0.478,-0.163,26.5,0.901,0.7,-1.7,0.7,9,0,0,0,0,2,93.1,0,0,0,0,0,0
0,70.423,70.423,0.459,-0.182,26.5,0.969,-0.7,1.4,-1.4,8,0,0,0,0,2,95.1,0,0,0,0,0,0
0,70.428,70.428,0.459,-0.182,26.5,0.969,-0.7,1.4,-1.4,8,0,0,0,0,2,95.1,0,0,0,0,0,0
0,70.433,70.433,0.459,-0.182,26.5,0.969,-0.7,1.4,-1.4,0,0,0,0,0,2,95.1,0,0,0,0,0,0
0,70.438,70.438,0.459,-0.182,26.5,0.969,-0.7,1.4,-1.4,0,0,0,0,0,2,95.1,0,0,0,0,0,0
0,70.443,70.443,0.459,-0.04,26.5,0.88,1.4,-0.6,0.7,1,0,0,0,0,2,95.8,0,0,0,0,0,0
0,70.448,70.448,0.459,-0.04,26.5,0.88,1.4,-0.6,0.7,1,0,0,0,0,2,95.8,0,0,0,0,0,0
0,70.453,70.453,0.459,-0.04,26.5,0.88,1.4,-0.6,0.7,8,0,0,0,0,2,95.8,0,0,0,0,0,0
0,70.458,70.458,0.459,-0.04,26.5,0.88,1.4,-0.6,0.7,8,0,0,0,0,2,95.8,0,0,0,0,0,0
0,70.463,70.463,0.468,-0.149,26.5,0.947,-1.4,-2,-0.1,12,0,0,0,0,2,95.7,0,0,0,0,0,0
0,70.468,70.468,0.468,-0.149,26.5,0.947,-1.4,-2,-0.1,12,0,0,0,0,2,95.7,0,0,0,0,0,0
0,70.473,70.473,0.468,-0.149,26.5,0.947,-1.4,-2,-0.1,21,0,0,0,0,2,95.7,0,0,0,0,0,0
0,70.478,70.478,0.468,-0.149,26.5,0.947,-1.4,-2,-0.1,21,0,0,0,0,2,95.7,0,0,0,0,0,0
0,70.483,70.483,0.453,-0.127,27,0.932,-1.2,1.5,-1.4,10,0,0,0,0,2,94.5,0,0,0,0,0,0
0,70.488,70.488,0.453,-0.127,27,0.932,-1.2,1.5,-1.4,10,0,0,0,0,2,94.5,0,0,0,0,0,0
0,70.493,70.493,0.453,-0.127,27,0.932,-1.2,1.5,-1.4,9,0,0,0,0,2,94.5,0,0,0,0,0,0
0,70.498,70.498,0.453,-0.127,27,0.932,-1.2,1.5,-1.4,9,0,0,0,0,2,94.5,0,0,0,0,0,0
0,70.503,70.503,0.474,-0.103,26.5,0.874,-0.1,-0.4,0.2,25,0,0,0,0,2,92.5,0,0,0,0,0,0
0,70.508,70.508,0.474,-0.103,26.5,0.874,-0.1,-0.4,0.2,25,0,0,0,0,2,92.5,0,0,0,0,0,0
0,70.513,70.513,0.474,-0.103,26.5,0.874,-0.1,-0.4,0.2,15,0,0,0,0,2,92.5,0,0,0,0,0,0
0,70.518,70.518,0.474,-0.103,26.5,0.874,-0.1,-0.4,0.2,15,0,0,0,0,2,92.5,0,0,0,0,0,0
0,70.523,70.523,0.433,-0.152,26.5,0.968,-1.3,-1.5,0.2,17,0,0,0,0,2,91.5,0,0,0,0,0,0
0,70.528,70.528,0.433,-0.152,26.5,0.968,-1.3,-1.5,0.2,17,0,0,0,0,2,91.5,0,0,0,0,0,0
0,70.533,70.533,0.433,-0.152,26.5,0.968,-1.3,-1.5,0.2,16,0,0,0,0,2,91.5,0,0,0,0,0,0
0,70.538,70.538,0.433,-0.152,26.5,0.968,-1.3,-1.5,0.2,16,0,0,0,0,2,91.5,0,0,0,0,0,0
0,70.543,70.543,0.451,-0.106,26.5,0.862,1.3,0,0.8,9,0,0,0,0,2,92.3,0,0,0,0,0,0
0,70.548,70.548,0.451,-0.106,26.5,0.862,1.3,0,0.8,9,0,0,0,0,2,92.3,0,0,0,0,0,0
0,70.553,70.553,0.451,-0.106,26.5,0.862,1.3,0,0.8,0,0,0,0,0,2,92.3,0,0,0,0,0,0
0,70.558,70.558,0.451,-0.106,26.5,0.862,1.3,0,0.8,0,0,0,0,0,2,92.3,0,0,0,0,0,0
0,70.563,70.563,0.444,-0.11,27,0.875,-1.1,1,-2.2,36,0,0,0,0,2,93.7,0,0,0,0,0,0
0,70.568,70.568,0.444,-0.11,27,0.875,-1.1,1,-2.2,36,0,0,0,0,2,93.7,0,0,0,0,0,0
0,70.573,70.573,0.444,-0.11,27,0.875,-1.1,1,-2.2,0,0,0,0,0,2,93.7,0,0,0,0,0,0
0,70.578,70.578,0.444,-0.11,27,0.875,-1.1,1,-2.2,0,0,0,0,0,2,93.7,0,0,0,0,0,0
0,70.583,70.583,0.41,-0.062,26.5,0.961,2.1,0.4,0.7,8,0,0,0,0,2,94.2,0,0,0,0,0,0
0,70.588,70.588,0.41,-0.062,26.5,0.961,2.1,0.4,0.7,8,0,0,0,0,2,94.2,0,0,0,0,0,0
0,70.593,70.593,0.41,-0.062,26.5,0.961,2.1,0.4,0.7,10,0,0,0,0,2,94.2,0,0,0,0,0,0
0,70.598,70.598,0.41,-0.062,26.5,0.961,2.1,0.4,0.7,10,0,0,0,0,2,94.2,0,0,0,0,0,0
0,70.603,70.603,0.447,0.695,26.5,0.94,12.6,5.3,-1.5,8,0,0,0,0,2,87.8,0,0,0.1,0,0,0
0,70.608,70.608,0.447,0.695,26.5,0.94,12.6,5.3,-1.5,8,0,0,0,0,2,87.8,0,0,0.1,0,0,0
0,70.613,70.613,0.447,0.695,26.5,0.94,12.6,5.3,-1.5,38,0,0,0,0,2,87.8,0,0,0.1,0,0,0
0,70.618,70.618,0.447,0.695,26.5,0.94,12.6,5.3,-1.5,38,0,0,0,0,2,87.8,0,0,0.1,0,0,0
0,70.623,70.623,0.458,0.5,26.5,0.971,-4.7,-4.9,-4.7,3,0,0,0,0,2,82.8,0,0,9.2,0.1,0,0
0,70.628,70.628,0.458,0.5,26.5,0.971,-4.7,-4.9,-4.7,3,0,0,0,0,2,82.8,0,0,9.2,0.1,0,0
0,70.633,70.633,0.458,0.5,26.5,0.971,-4.7,-4.9,-4.7,8,0,0,0,0,2,82.8,0,0,9.2,0.1,0,0
0,70.638,70.638,0.458,0.5,26.5,0.971,-4.7,-4.9,-4.7,8,0,0,0,0,2,82.8,0,0,9.2,0.1,0,0
0,70.643,70.643,0.456,0.577,26.5,1.139,4.4,1.4,3.9,0,0,0,0,0,2,89.7,0,0,27.9,29.7,0,0
0,70.648,70.648,0.456,0.577,26.5,1.139,4.4,1.4,3.9,0,0,0,0,0,2,89.7,0,0,27.9,29.7,0,0
0,70.653,70.653,0.456,0.577,26.5,1.139,4.4,1.4,3.9,0,0,0,0,0,2,89.7,0,0,27.9,29.7,0,0
0,70.658,70.658,0.456,0.577,26.5,1.139,4.4,1.4,3.9,0,0,0,0,0,2,89.7,0,0,27.9,29.7,0,0
0,70.663,70.663,0.554,0.593,26.5,1.03,13.5,5,-1.5,16,0,0,0,0,2,93.9,0,0,49.1,47.2,0,0
0,70.668,70.668,0.554,0.593,26.5,1.03,13.5,5,-1.5,16,0,0,0,0,2,93.9,0,0,49.1,47.2,0,0
0,70.673,70.673,0.554,0.593,26.5,1.03,13.5,5,-1.5,0,0,0,0,0,2,93.9,0,0,49.1,47.2,0,0
0,70.678,70.678,0.554,0.593,26.5,1.03,13.5,5,-1.5,0,0,0,0,0,2,93.9,0,0,49.1,47.2,0,0
0,70.683,70.683,0.564,0.466,26.5,1.171,5.4,3.1,-0.3,0,0,0,0,0,2,91.5,0,0,50.3,52.3,0,0
0,70.688,70.688,0.564,0.466,26.5,1.171,5.4,3.1,-0.3,0,0,0,0,0,2,91.5,0,0,50.3,52.3,0,0
0,70.693,70.693,0.564,0.466,26.5,1.171,5.4,3.1,-0.3,8,0,0,0,0,2,91.5,0,0,50.3,52.3,0,0
0,70.698,70.698,0.564,0.466,26.5,1.171,5.4,3.1,-0.3,8,0,0,0,0,2,91.5,0,0,50.3,52.3,0,0
0,70.703,70.703,0.478,0.391,26.5,0.796,-3.1,-1,0.9,11,0.1,0,0,0,2,90.5,0,0.1,47.9,50.8,0,0
0,70.708,70.708,0.478,0.391,26.5,0.796,-3.1,-1,0.9,11,0.1,0,0,0,2,90.5,0,0.1,47.9,50.8,0,0
0,70.713,70.713,0.478,0.391,26.5,0.796,-3.1,-1,0.9,15,0.1,0,0,0,2,90.5,0,0.1,47.9,50.8,0,0
0,70.718,70.718,0.478,0.391,26.5,0.796,-3.1,-1,0.9,15,0.1,0,0,0,2,90.5,0,0.1,47.9,50.8,0,0
0,70.723,70.723,0.449,0.255,26.5,0.873,-5.9,1.8,-2.9,0,0.1,0,0,0,2,90.6,0,0.1,52,48.4,0,0
0,70.728,70.728,0.449,0.255,26.5,0.873,-5.9,1.8,-2.9,0,0.1,0,0,0,2,90.6,0,0.1,52,48.4,0,0
0,70.733,70.733,0.449,0.255,26.5,0.873,-5.9,1.8,-2.9,43,0.1,0,0,0,2,90.6,0,0.1,52,48.4,0,0
0,70.738,70.738,0.449,0.255,26.5,0.873,-5.9,1.8,-2.9,43,0.1,0,0,0,2,90.6,0,0.1,52,48.4,0,0
0,70.743,70.743,0.453,0.378,26.5,0.754,-5.8,4.1,-3,11,0.1,0,0,0,2,89,0,0.1,50,47.5,0,0
0,70.748,70.748,0.453,0.378,26.5,0.754,-5.8,4.1,-3,11,0.1,0,0,0,2,89,0,0.1,50,47.5,0,0
0,70.753,70.753,0.453,0.378,26.5,0.754,-5.8,4.1,-3,18,0.1,0,0,0,2,89,0,0.1,50,47.5,0,0
0,70.758,70.758,0.453,0.378,26.5,0.754,-5.8,4.1,-3,18,0.1,0,0,0,2,89,0,0.1,50,47.5,0,0
0,70.763,70.763,0.428,0.459,26.5,0.783,-6.8,-1.5,-3.1,9,0.1,0,0,0,2,83.2,0.1,0.1,44.9,47,0,0
0,70.768,70.768,0.428,0.459,26.5,0.783,-6.8,-1.5,-3.1,9,0.1,0,0,0,2,83.2,0.1,0.1,44.9,47,0,0
0,70.773,70.773,0.428,0.459,26.5,0.783,-6.8,-1.5,-3.1,9,0.1,0,0,0,2,83.2,0.1,0.1,44.9,47,0,0
0,70.778,70.778,0.428,0.459,26.5,0.783,-6.8,-1.5,-3.1,9,0.1,0,0,0,2,83.2,0.1,0.1,44.9,47,0,0
0,70.783,70.783,0.474,0.399,26.5,0.955,-0.8,-2.2,-2.4,9,3,0,0,0,2,79.9,0.1,3,48.9,49.1,0,0
0,70.788,70.788,0.474,0.399,26.5,0.955,-0.8,-2.2,-2.4,9,3,0,0,0,2,79.9,0.1,3,48.9,49.1,0,0
0,70.793,70.793,0.474,0.399,26.5,0.955,-0.8,-2.2,-2.4,9,3,0,0,0,2,79.9,0.1,3,48.9,49.1,0,0
0,70.798,70.798,0.474,0.399,26.5,0.955,-0.8,-2.2,-2.4,9,3,0,0,0,2,79.9,0.1,3,48.9,49.1,0,0
0,70.803,70.803,0.469,0.493,26.5,0.931,3.9,-0.4,-3.2,0,3,0,0,0,2,84,0.1,3,47.6,48.3,0,0
0,70.808,70.808,0.469,0.493,26.5,0.931,3.9,-0.4,-3.2,0,3,0,0,0,2,84,0.1,3,47.6,48.3,0,0
0,70.813,70.813,0.469,0.493,26.5,0.931,3.9,-0.4,-3.2,21,3,0,0,0,2,84,0.1,3,47.6,48.3,0,0
0,70.818,70.818,0.469,0.493,26.5,0.931,3.9,-0.4,-3.2,21,3,0,0,0,2,84,0.1,3,47.6,48.3,0,0
0,70.823,70.823,0.447,0.578,26.5,0.973,3.9,1.3,-3.3,11,3,0,0,0,2,90.9,3.6,3,44.2,44.3,0,0
0,70.828,70.828,0.447,0.578,26.5,0.973,3.9,1.3,-3.3,11,3,0,0,0,2,90.9,3.6,3,44.2,44.3,0,0
0,70.833,70.833,0.447,0.578,26.5,0.973,3.9,1.3,-3.3,8,3,0,0,0,2,90.9,3.6,3,44.2,44.3,0,0
0,70.838,70.838,0.447,0.578,26.5,0.973,3.9,1.3,-3.3,8,3,0,0,0,2,90.9,3.6,3,44.2,44.3,0,0
0,70.843,70.843,0.44,0.557,26.5,1.006,-0.8,1.9,-6,8,4.2,0,0,0,2,93.9,3.6,4.2,48,46.5,0,0
0,70.848,70.848,0.44,0.557,26.5,1.006,-0.8,1.9,-6,8,4.2,0,0,0,2,93.9,3.6,4.2,48,46.5,0,0
0,70.853,70.853,0.44,0.557,26.5,1.006,-0.8,1.9,-6,2,4.2,0,0,0,2,93.9,3.6,4.2,48,46.5,0,0
0,70.858,70.858,0.44,0.557,26.5,1.006,-0.8,1.9,-6,2,4.2,0,0,0,2,93.9,3.6,4.2,48,46.5,0,0
0,70.863,70.863,0.428,0.608,26.5,1.039,7.6,1,-4.3,17,4.2,0,0,0,2,94.5,4.7,4.2,47.4,47.4,0,0
0,70.868,70.868,0.428,0.608,26.5,1.039,7.6,1,-4.3,17,4.2,0,0,0,2,94.5,4.7,4.2,47.4,47.4,0,0
0,70.873,70.873,0.428,0.608,26.5,1.039,7.6,1,-4.3,8,4.2,0,0,0,2,94.5,4.7,4.2,47.4,47.4,0,0
0,70.878,70.878,0.428,0.608,26.5,1.039,7.6,1,-4.3,8,4.2,0,0,0,2,94.5,4.7,4.2,47.4,47.4,0,0
0,70.883,70.883,0.486,0.586,26.5,1.166,4.8,-2.6,-2.3,8,5.3,0,0,0,1,95.9,4.7,5.3,43.3,43,0,0
0,70.888,70.888,0.486,0.586,26.5,1.166,4.8,-2.6,-2.3,8,5.3,0,0,0,1,95.9,4.7,5.3,43.3,43,0,0
0,70.893,70.893,0.486,0.586,26.5,1.166,4.8,-2.6,-2.3,9,5.3,0,0,0,1,95.9,4.7,5.3,43.3,43,0,0
0,70.898,70.898,0.486,0.586,26.5,1.166,4.8,-2.6,-2.3,9,5.3,0,0,0,1,95.9,4.7,5.3,43.3,43,0,0
0,70.903,70.903,0.411,0.604,26.5,0.988,0.3,-1.7,-5.2,8,6.2,0,0,0,1,97.6,5.7,6.2,47.8,46.8,0,0
0,70.908,70.908,0.411,0.604,26.5,0.988,0.3,-1.7,-5.2,8,6.2,0,0,0,1,97.6,5.7,6.2,47.8,46.8,0,0
0,70.913,70.913,0.411,0.604,26.5,0.988,0.3,-1.7,-5.2,13,6.2,0,0,0,1,97.6,5.7,6.2,47.8,46.8,0,0
0,70.918,70.918,0.411,0.604,26.5,0.988,0.3,-1.7,-5.2,13,6.2,0,0,0,1,97.6,5.7,6.2,47.8,46.8,0,0
0,70.923,70.923,0.438,0.543,26.5,0.932,-0.6,0.9,-6.2,8,6.2,0,0,0,0,97.9,5.7,6.2,47.6,48.3,0,0
0,70.928,70.928,0.438,0.543,26.5,0.932,-0.6,0.9,-6.2,8,6.2,0,0,0,0,97.9,5.7,6.2,47.6,48.3,0,0
0,70.933,70.933,0.438,0.543,26.5,0.932,-0.6,0.9,-6.2,9,6.2,0,0,0,-1,97.9,5.7,6.2,47.6,48.3,0,0
0,70.938,70.938,0.438,0.543,26.5,0.932,-0.6,0.9,-6.2,9,6.2,0,0,0,-1,97.9,5.7,6.2,47.6,48.3,0,0
0,70.943,70.943,0.5,0.495,26.5,1.009,-2.6,0.2,-5.2,10,7,0,0,0,-2,97.7,6.5,7,44.1,43.9,0,0
0,70.948,70.948,0.5,0.495,26.5,1.009,-2.6,0.2,-5.2,10,7,0,0,0,-2,97.7,6.5,7,44.1,43.9,0,0
0,70.953,70.953,0.5,0.495,26.5,1.009,-2.6,0.2,-5.2,9,7,0,0,0,-3,97.7,6.5,7,44.1,43.9,0,0
0,70.958,70.958,0.5,0.495,26.5,1.009,-2.6,0.2,-5.2,9,7,0,0,0,-3,97.7,6.5,7,44.1,43.9,0,0
0,70.963,70.963,0.469,0.553,26.5,0.937,-0.2,-0.8,-5.2,22,7.6,0,0,0,-4,97,7.2,7.6,49.3,47.5,0,0
0,70.968,70.968,0.469,0.553,26.5,0.937,-0.2,-0.8,-5.2,22,7.6,0,0,0,-4,97,7.2,7.6,49.3,47.5,0,0
0,70.973,70.973,0.469,0.553,26.5,0.937,-0.2,-0.8,-5.2,2,7.6,0,0,0,-5,97,7.2,7.6,49.3,47.5,0,0
0,70.978,70.978,0.469,0.553,26.5,0.937,-0.2,-0.8,-5.2,2,7.6,0,0,0,-5,97,7.2,7.6,49.3,47.5,0,0
0,70.983,70.983,0.47,0.532,26.5,0.929,1.8,-1.3,-3.8,0,7.6,0,0,0,-6,95.9,7.2,7.6,49.2,50.6,0,0
0,70.988,70.988,0.47,0.532,26.5,0.929,1.8,-1.3,-3.8,0,7.6,0,0,0,-6,95.9,7.2,7.6,49.2,50.6,0,0
0,70.993,70.993,0.47,0.532,26.5,0.929,1.8,-1.3,-3.8,12,7.6,0,0,0,-7,95.9,7.2,7.6,49.2,50.6,0,0
0,70.998,70.998,0.47,0.532,26.5,0.929,1.8,-1.3,-3.8,12,7.6,0,0,0,-7,95.9,7.2,7.6,49.2,50.6,0,0
0,71.003,71.003,0.497,0.639,26.5,0.852,-3.4,-1.6,-3.9,14,8.2,0,0,0,-8,94.9,7.9,8.2,46.8,46.7,0,0
0,71.008,71.008,0.497,0.639,26.5,0.852,-3.4,-1.6,-3.9,14,8.2,0,0,0,-8,94.9,7.9,8.2,46.8,46.7,0,0
0,71.013,71.013,0.497,0.639,26.5,0.852,-3.4,-1.6,-3.9,10,8.2,0,0,0,-10,94.9,7.9,8.2,46.8,46.7,0,0
0,71.018,71.018,0.497,0.639,26.5,0.852,-3.4,-1.6,-3.9,10,8.2,0,0,0,-10,94.9,7.9,8.2,46.8,46.7,0,0
0,71.023,71.023,0.454,0.619,26.5,0.895,-0.5,2.1,-6.2,0,8.8,0,0,0,-10,93.7,8.5,8.8,49.5,49.4,0,0
0,71.028,71.028,0.454,0.619,26.5,0.895,-0.5,2.1,-6.2,0,8.8,0,0,0,-10,93.7,8.5,8.8,49.5,49.4,0,0
0,71.033,71.033,0.454,0.619,26.5,0.895,-0.5,2.1,-6.2,75,8.8,0,0,0,-12,93.7,8.5,8.8,49.5,49.4,0,0
0,71.038,71.038,0.454,0.619,26.5,0.895,-0.5,2.1,-6.2,75,8.8,0,0,0,-12,93.7,8.5,8.8,49.5,49.4,0,0
0,71.043,71.043,0.495,0.536,26.5,1.034,4.9,0,-2.3,30,9.4,0,0,0,-12,92,9.2,9.4,49.4,50.6,0,0
0,71.048,71.048,0.495,0.536,26.5,1.034,4.9,0,-2.3,30,9.4,0,0,0,-12,92,9.2,9.4,49.4,50.6,0,0
0,71.053,71.053,0.495,0.536,26.5,1.034,4.9,0,-2.3,11,9.4,0,0,0,-13,92,9.2,9.4,49.4,50.6,0,0
0,71.058,71.058,0.495,0.536,26.5,1.034,4.9,0,-2.3,11,9.4,0,0,0,-13,92,9.2,9.4,49.4,50.6,0,0
0,71.063,71.063,0.484,0.593,26.5,0.991,1.3,-0.4,-0.6,30,9.9,0,0,0,-14,91.4,9.6,9.9,47.9,47.6,0,0
0,71.068,71.068,0.484,0.593,26.5,0.991,1.3,-0.4,-0.6,30,9.9,0,0,0,-14,91.4,9.6,9.9,47.9,47.6,0,0
0,71.073,71.073,0.484,0.593,26.5,0.991,1.3,-0.4,-0.6,6,9.9,0,0,0,-14,91.4,9.6,9.9,47.9,47.6,0,0
0,71.078,71.078,0.484,0.593,26.5,0.991,1.3,-0.4,-0.6,6,9.9,0,0,0,-14,91.4,9.6,9.9,47.9,47.6,0,0
0,71.083,71.083,0.471,0.661,26.5,0.945,3.3,1.1,-1.5,0,10.3,0,0,0,-15,91.6,10,10.3,51.2,50,0,0
0,71.088,71.088,0.471,0.661,26.5,0.945,3.3,1.1,-1.5,0,10.3,0,0,0,-15,91.6,10,10.3,51.2,50,0,0
0,71.093,71.093,0.471,0.661,26.5,0.945,3.3,1.1,-1.5,9,10.3,0,0,0,-16,91.6,10,10.3,51.2,50,0,0
0,71.098,71.098,0.471,0.661,26.5,0.945,3.3,1.1,-1.5,9,10.3,0,0,0,-16,91.6,10,10.3,51.2,50,0,0
0,71.103,71.103,0.505,0.683,26.5,0.914,1,-0.1,0.7,14,10.8,0,0,0,-16,91.9,11.5,10.8,51.7,52.4,0,0
0,71.108,71.108,0.505,0.683,26.5,0.914,1,-0.1,0.7,14,10.8,0,0,0,-16,91.9,11.5,10.8,51.7,52.4,0,0
0,71.113,71.113,0.505,0.683,26.5,0.914,1,-0.1,0.7,5,10.8,0,0,0,-17,91.9,11.5,10.8,51.7,52.4,0,0
0,71.118,71.118,0.505,0.683,26.5,0.914,1,-0.1,0.7,5,10.8,0,0,0,-17,91.9,11.5,10.8,51.7,52.4,0,0
0,71.123,71.123,0.459,0.652,26.5,0.917,-0.5,-0.2,2.7,7,11.2,0,0,0,-18,92.1,11.4,11.2,49.7,50.9,0,0
0,71.128,71.128,0.459,0.652,26.5,0.917,-0.5,-0.2,2.7,7,11.2,0,0,0,-18,92.1,11.4,11.2,49.7,50.9,0,0
0,71.133,71.133,0.459,0.652,26.5,0.917,-0.5,-0.2,2.7,10,11.2,0,0,0,-18,92.1,11.4,11.2,49.7,50.9,0,0
0,71.138,71.138,0.459,0.652,26.5,0.917,-0.5,-0.2,2.7,10,11.2,0,0,0,-18,92.1,11.4,11.2,49.7,50.9,0,0
0,71.143,71.143,0.512,0.648,26.5,1.001,3.7,0.3,3.4,8,11.7,0,0,0,-19,92.2,11.9,11.7,52.1,50.7,0,0
0,71.148,71.148,0.512,0.648,26.5,1.001,3.7,0.3,3.4,8,11.7,0,0,0,-19,92.2,11.9,11.7,52.1,50.7,0,0
0,71.153,71.153,0.512,0.648,26.5,1.001,3.7,0.3,3.4,8,11.7,0,0,0,-20,92.2,11.9,11.7,52.1,50.7,0,0
0,71.158,71.158,0.512,0.648,26.5,1.001,3.7,0.3,3.4,8,11.7,0,0,0,-20,92.2,11.9,11.7,52.1,50.7,0,0
0,71.163,71.163,0.517,0.654,26.5,0.931,-0.4,-1.1,5.2,0,12.2,0,0,0,-21,92.4,12.4,12.2,54,53.5,0,0
0,71.168,71.168,0.517,0.654,26.5,0.931,-0.4,-1.1,5.2,0,12.2,0,0,0,-21,92.4,12.4,12.2,54,53.5,0,0
0,71.173,71.173,0.517,0.654,26.5,0.931,-0.4,-1.1,5.2,0,12.2,0,0,0,-22,92.4,12.4,12.2,54,53.5,0,0
0,71.178,71.178,0.517,0.654,26.5,0.931,-0.4,-1.1,5.2,0,12.2,0,0,0,-22,92.4,12.4,12.2,54,53.5,0,0
0,71.183,71.183,0.52,0.689,26.5,0.92,0.5,-0.8,3.9,0,12.5,0,0,0,-23,93.1,13.4,12.5,51.2,54.1,0,0
0,71.188,71.188,0.52,0.689,26.5,0.92,0.5,-0.8,3.9,0,12.5,0,0,0,-23,93.1,13.4,12.5,51.2,54.1,0,0
0,71.193,71.193,0.52,0.689,26.5,0.92,0.5,-0.8,3.9,0,12.5,0,0,0,-24,93.1,13.4,12.5,51.2,54.1,0,0
0,71.198,71.198,0.52,0.689,26.5,0.92,0.5,-0.8,3.9,0,12.5,0,0,0,-24,93.1,13.4,12.5,51.2,54.1,0,0
0,71.203,71.203,0.517,0.733,26.5,0.995,3.9,0.1,6.1,8,13.3,0,0,0,-25,93.8,13.9,13.3,53.2,51.4,0,0
0,71.208,71.208,0.517,0.733,26.5,0.995,3.9,0.1,6.1,8,13.3,0,0,0,-25,93.8,13.9,13.3,53.2,51.4,0,0
0,71.213,71.213,0.517,0.733,26.5,0.995,3.9,0.1,6.1,0,13.3,0,0,0,-26,93.8,13.9,13.3,53.2,51.4,0,0
0,71.218,71.218,0.517,0.733,26.5,0.995,3.9,0.1,6.1,0,13.3,0,0,0,-26,93.8,13.9,13.3,53.2,51.4,0,0
0,71.223,71.223,0.538,0.697,26.5,0.987,2.8,1.4,8.3,2,13.7,0,0,0,-27,94.1,14.3,13.7,55.9,54.9,0,0
0,71.228,71.228,0.538,0.697,26.5,0.987,2.8,1.4,8.3,2,13.7,0,0,0,-27,94.1,14.3,13.7,55.9,54.9,0,0
0,71.233,71.233,0.538,0.697,26.5,0.987,2.8,1.4,8.3,10,13.7,0,0,0,-28,94.1,14.3,13.7,55.9,54.9,0,0
0,71.238,71.238,0.538,0.697,26.5,0.987,2.8,1.4,8.3,10,13.7,0,0,0,-28,94.1,14.3,13.7,55.9,54.9,0,0
0,71.243,71.243,0.554,0.66,26.5,1.03,2.5,0.1,10,8,14,0,0,0,-29,93.9,15.2,14,53.8,55.5,0,0
0,71.248,71.248,0.554,0.66,26.5,1.03,2.5,0.1,10,8,14,0,0,0,-29,93.9,15.2,14,53.8,55.5,0,0
0,71.253,71.253,0.554,0.66,26.5,1.03,2.5,0.1,10,9,14,0,0,0,-29,93.9,15.2,14,53.8,55.5,0,0
0,71.258,71.258,0.554,0.66,26.5,1.03,2.5,0.1,10,9,14,0,0,0,-29,93.9,15.2,14,53.8,55.5,0,0
0,71.263,71.263,0.502,0.648,26.5,0.948,-2.3,0,10.7,0,14.8,0,0,0,-29,92.3,15.6,14.8,54.2,53.3,0,0
0,71.268,71.268,0.502,0.648,26.5,0.948,-2.3,0,10.7,0,14.8,0,0,0,-29,92.3,15.6,14.8,54.2,53.3,0,0
0,71.273,71.273,0.502,0.648,26.5,0.948,-2.3,0,10.7,7,14.8,0,0,0,-28,92.3,15.6,14.8,54.2,53.3,0,0
0,71.278,71.278,0.502,0.648,26.5,0.948,-2.3,0,10.7,7,14.8,0,0,0,-28,92.3,15.6,14.8,54.2,53.3,0,0
0,71.283,71.283,0.523,0.646,26.5,0.963,-1.5,0.2,12.6,10,15.2,0,0,0,-28,87.9,16.5,15.2,56.5,56.4,0,0
0,71.288,71.288,0.523,0.646,26.5,0.963,-1.5,0.2,12.6,10,15.2,0,0,0,-28,87.9,16.5,15.2,56.5,56.4,0,0
0,71.293,71.293,0.523,0.646,26.5,0.963,-1.5,0.2,12.6,9,15.2,0,0,0,-26,87.9,16.5,15.2,56.5,56.4,0,0
0,71.298,71.298,0.523,0.646,26.5,0.963,-1.5,0.2,12.6,9,15.2,0,0,0,-26,87.9,16.5,15.2,56.5,56.4,0,0
0,71.303,71.303,0.547,0.657,26.5,0.978,-1.1,0.8,15.8,11,15.6,0,0,0,-25,82.6,16.9,15.6,54.9,56.8,0,0
0,71.308,71.308,0.547,0.657,26.5,0.978,-1.1,0.8,15.8,11,15.6,0,0,0,-25,82.6,16.9,15.6,54.9,56.8,0,0
0,71.313,71.313,0.547,0.657,26.5,0.978,-1.1,0.8,15.8,0,15.6,0,0,0,-24,82.6,16.9,15.6,54.9,56.8,0,0
0,71.318,71.318,0.547,0.657,26.5,0.978,-1.1,0.8,15.8,0,15.6,0,0,0,-24,82.6,16.9,15.6,54.9,56.8,0,0
0,71.323,71.323,0.433,0.67,26.5,0.925,-0.8,3.3,16.1,0,16.3,0,0,0,-21,81.3,17.6,16.3,55.8,55.2,0,0
0,71.328,71.328,0.433,0.67,26.5,0.925,-0.8,3.3,16.1,0,16.3,0,0,0,-21,81.3,17.6,16.3,55.8,55.2,0,0
0,71.333,71.333,0.433,0.67,26.5,0.925,-0.8,3.3,16.1,40,16.3,0,0,0,-19,81.3,17.6,16.3,55.8,55.2,0,0
0,71.338,71.338,0.433,0.67,26.5,0.925,-0.8,3.3,16.1,40,16.3,0,0,0,-19,81.3,17.6,16.3,55.8,55.2,0,0
0,71.343,71.343,0.454,0.669,26.5,0.914,2.5,3.1,18.3,7,16.8,0,0,0,-17,83.4,18.3,16.8,57.8,55.8,0,0
0,71.348,71.348,0.454,0.669,26.5,0.914,2.5,3.1,18.3,7,16.8,0,0,0,-17,83.4,18.3,16.8,57.8,55.8,0,0
0,71.353,71.353,0.454,0.669,26.5,0.914,2.5,3.1,18.3,6,16.8,0,0,0,-13,83.4,18.3,16.8,57.8,55.8,0,0
0,71.358,71.358,0.454,0.669,26.5,0.914,2.5,3.1,18.3,6,16.8,0,0,0,-13,83.4,18.3,16.8,57.8,55.8,0,0
0,71.363,71.363,0.45,0.717,26.5,0.925,1.1,2.9,19.2,25,17,0,0,0,-10,86.3,18.5,17,56.3,57.4,0,0
0,71.368,71.368,0.45,0.717,26.5,0.925,1.1,2.9,19.2,25,17,0,0,0,-10,86.3,18.5,17,56.3,57.4,0,0
0,71.373,71.373,0.45,0.717,26.5,0.925,1.1,2.9,19.2,18,17,0,0,0,-8,86.3,18.5,17,56.3,57.4,0,0
0,71.378,71.378,0.45,0.717,26.5,0.925,1.1,2.9,19.2,18,17,0,0,0,-8,86.3,18.5,17,56.3,57.4,0,0
0,71.383,71.383,0.416,0.823,27,0.994,0.5,1.2,16.9,0,17.9,0,0,0,-6,88.5,19.1,17.9,55.3,55.1,0,0
0,71.388,71.388,0.416,0.823,27,0.994,0.5,1.2,16.9,0,17.9,0,0,0,-6,88.5,19.1,17.9,55.3,55.1,0,0
0,71.393,71.393,0.416,0.823,27,0.994,0.5,1.2,16.9,2,17.9,0,0,0,-6,88.5,19.1,17.9,55.3,55.1,0,0
0,71.398,71.398,0.416,0.823,27,0.994,0.5,1.2,16.9,2,17.9,0,0,0,-6,88.5,19.1,17.9,55.3,55.1,0,0
0,71.403,71.403,0.43,0.845,26.5,1.003,0,0.1,14.8,0,18.8,0,0,0,-4,89,19.8,18.8,57.8,56.4,0,0
0,71.408,71.408,0.43,0.845,26.5,1.003,0,0.1,14.8,0,18.8,0,0,0,-4,89,19.8,18.8,57.8,56.4,0,0
0,71.413,71.413,0.43,0.845,26.5,1.003,0,0.1,14.8,0,18.8,0,0,0,-4,89,19.8,18.8,57.8,56.4,0,0
0,71.418,71.418,0.43,0.845,26.5,1.003,0,0.1,14.8,0,18.8,0,0,0,-4,89,19.8,18.8,57.8,56.4,0,0
0,71.423,71.423,0.479,0.819,26.5,0.958,0.9,-0.9,12.8,4,19.1,0,0,0,-3,87.8,20.3,19.1,56.7,58.4,0,0
0,71.428,71.428,0.479,0.819,26.5,0.958,0.9,-0.9,12.8,4,19.1,0,0,0,-3,87.8,20.3,19.1,56.7,58.4,0,0
0,71.433,71.433,0.479,0.819,26.5,0.958,0.9,-0.9,12.8,11,19.1,0,0,0,-2,87.8,20.3,19.1,56.7,58.4,0,0
0,71.438,71.438,0.479,0.819,26.5,0.958,0.9,-0.9,12.8,11,19.1,0,0,0,-2,87.8,20.3,19.1,56.7,58.4,0,0
0,71.443,71.443,0.472,0.759,26.5,1.029,0,-0.3,10.7,33,19.6,0,0,0,-1,85.3,20.8,19.6,55.8,56.1,0,0
0,71.448,71.448,0.472,0.759,26.5,1.029,0,-0.3,10.7,33,19.6,0,0,0,-1,85.3,20.8,19.6,55.8,56.1,0,0
0,71.453,71.453,0.472,0.759,26.5,1.029,0,-0.3,10.7,0,19.6,0,0,0,-1,85.3,20.8,19.6,55.8,56.1,0,0
0,71.458,71.458,0.472,0.759,26.5,1.029,0,-0.3,10.7,0,19.6,0,0,0,-1,85.3,20.8,19.6,55.8,56.1,0,0
0,71.463,71.463,0.465,0.785,26.5,0.957,-0.6,2.1,7.3,0,20.5,0,0,0,0,84.9,21.5,20.5,58.7,56.4,0,0
0,71.468,71.468,0.465,0.785,26.5,0.957,-0.6,2.1,7.3,0,20.5,0,0,0,0,84.9,21.5,20.5,58.7,56.4,0,0
0,71.473,71.473,0.465,0.785,26.5,0.957,-0.6,2.1,7.3,0,20.5,0,0,0,1,84.9,21.5,20.5,58.7,56.4,0,0
0,71.478,71.478,0.465,0.785,26.5,0.957,-0.6,2.1,7.3,0,20.5,0,0,0,1,84.9,21.5,20.5,58.7,56.4,0,0
0,71.483,71.483,0.531,0.786,26.5,1.02,0.6,0.3,8.4,49,21.2,0,0,0,1,86.7,22,21.2,57.1,57.6,0,0
0,71.488,71.488,0.531,0.786,26.5,1.02,0.6,0.3,8.4,49,21.2,0,0,0,1,86.7,22,21.2,57.1,57.6,0,0
0,71.493,71.493,0.531,0.786,26.5,1.02,0.6,0.3,8.4,8,21.2,0,0,0,2,86.7,22,21.2,57.1,57.6,0,0
0,71.498,71.498,0.531,0.786,26.5,1.02,0.6,0.3,8.4,8,21.2,0,0,0,2,86.7,22,21.2,57.1,57.6,0,0
0,71.503,71.503,0.408,0.757,26.5,0.88,0.8,0,5.8,21,21.8,0,0,0,2,88.1,22.3,21.8,55.8,57.6,0,0
0,71.508,71.508,0.408,0.757,26.5,0.88,0.8,0,5.8,21,21.8,0,0,0,2,88.1,22.3,21.8,55.8,57.6,0,0
0,71.513,71.513,0.408,0.757,26.5,0.88,0.8,0,5.8,30,21.8,0,0,0,3,88.1,22.3,21.8,55.8,57.6,0,0
0,71.518,71.518,0.408,0.757,26.5,0.88,0.8,0,5.8,30,21.8,0,0,0,3,88.1,22.3,21.8,55.8,57.6,0,0
0,71.523,71.523,0.443,0.801,26.5,0.956,4.3,-0.2,4.6,0,22.4,0,0,0,4,88.4,22.9,22.4,57.5,56.1,0,0
0,71.528,71.528,0.443,0.801,26.5,0.956,4.3,-0.2,4.6,0,22.4,0,0,0,4,88.4,22.9,22.4,57.5,56.1,0,0
0,71.533,71.533,0.443,0.801,26.5,0.956,4.3,-0.2,4.6,0,22.4,0,0,0,4,88.4,22.9,22.4,57.5,56.1,0,0
0,71.538,71.538,0.443,0.801,26.5,0.956,4.3,-0.2,4.6,0,22.4,0,0,0,4,88.4,22.9,22.4,57.5,56.1,0,0
0,71.543,71.543,0.492,0.805,26.5,0.992,1,-1.7,4.6,22,23.4,0,0,0,4,88,23.5,23.4,57.3,56.8,0,0
0,71.548,71.548,0.492,0.805,26.5,0.992,1,-1.7,4.6,22,23.4,0,0,0,4,88,23.5,23.4,57.3,56.8,0,0
0,71.553,71.553,0.492,0.805,26.5,0.992,1,-1.7,4.6,10,23.4,0,0,0,4,88,23.5,23.4,57.3,56.8,0,0
0,71.558,71.558,0.492,0.805,26.5,0.992,1,-1.7,4.6,10,23.4,0,0,0,4,88,23.5,23.4,57.3,56.8,0,0
0,71.563,71.563,0.475,0.818,26.5,0.989,0,-1.1,0.8,0,24.1,0,0,0,4,85.9,24,24.1,55.2,57.4,0,0
0,71.568,71.568,0.475,0.818,26.5,0.989,0,-1.1,0.8,0,24.1,0,0,0,4,85.9,24,24.1,55.2,57.4,0,0
0,71.573,71.573,0.475,0.818,26.5,0.989,0,-1.1,0.8,54,24.1,0,0,0,2,85.9,24,24.1,55.2,57.4,0,0
0,71.578,71.578,0.475,0.818,26.5,0.989,0,-1.1,0.8,54,24.1,0,0,0,2,85.9,24,24.1,55.2,57.4,0,0
0,71.583,71.583,0.402,0.85,26.5,1.029,-3.7,-0.6,-2.2,8,24.6,0,0,0,0,83.8,24.8,24.6,57.7,57.4,0,0
0,71.588,71.588,0.402,0.85,26.5,1.029,-3.7,-0.6,-2.2,8,24.6,0,0,0,0,83.8,24.8,24.6,57.7,57.4,0,0
0,71.593,71.593,0.402,0.85,26.5,1.029,-3.7,-0.6,-2.2,9,24.6,0,0,0,-3,83.8,24.8,24.6,57.7,57.4,0,0
0,71.598,71.598,0.402,0.85,26.5,1.029,-3.7,-0.6,-2.2,9,24.6,0,0,0,-3,83.8,24.8,24.6,57.7,57.4,0,0
0,71.603,71.603,0.502,0.801,26.5,0.954,-2.9,0.8,-1.7,52,24.9,0,0,0,-6,82.9,25.5,24.9,58.2,57.7,0,0
0,71.608,71.608,0.502,0.801,26.5,0.954,-2.9,0.8,-1.7,52,24.9,0,0,0,-6,82.9,25.5,24.9,58.2,57.7,0,0
0,71.613,71.613,0.502,0.801,26.5,0.954,-2.9,0.8,-1.7,38,24.9,0,0,0,-9,82.9,25.5,24.9,58.2,57.7,0,0
0,71.618,71.618,0.502,0.801,26.5,0.954,-2.9,0.8,-1.7,38,24.9,0,0,0,-9,82.9,25.5,24.9,58.2,57.7,0,0
0,71.623,71.623,0.675,0.708,26.5,1.033,-2.6,-2.9,2,4,25.7,0,0,0,-13,81.8,26,25.7,55.5,56,0,0
0,71.628,71.628,0.675,0.708,26.5,1.033,-2.6,-2.9,2,4,25.7,0,0,0,-13,81.8,26,25.7,55.5,56,0,0
0,71.633,71.633,0.675,0.708,26.5,1.033,-2.6,-2.9,2,9,25.7,0,0,0,-16,81.8,26,25.7,55.5,56,0,0
0,71.638,71.638,0.675,0.708,26.5,1.033,-2.6,-2.9,2,9,25.7,0,0,0,-16,81.8,26,25.7,55.5,56,0,0
0,71.643,71.643,0.61,0.765,26.5,0.856,-1.5,-1.3,2.3,0,26.1,0,0,0,-20,81.2,26.8,26.1,57.3,57.7,0,0
0,71.648,71.648,0.61,0.765,26.5,0.856,-1.5,-1.3,2.3,0,26.1,0,0,0,-20,81.2,26.8,26.1,57.3,57.7,0,0
0,71.653,71.653,0.61,0.765,26.5,0.856,-1.5,-1.3,2.3,6,26.1,0,0,0,-23,81.2,26.8,26.1,57.3,57.7,0,0
0,71.658,71.658,0.61,0.765,26.5,0.856,-1.5,-1.3,2.3,6,26.1,0,0,0,-23,81.2,26.8,26.1,57.3,57.7,0,0
0,71.663,71.663,0.714,0.723,26.5,0.927,2.4,-2.3,7.3,9,26.4,0,0,0,-26,81.2,27.4,26.4,57.1,57.8,0,0
0,71.668,71.668,0.714,0.723,26.5,0.927,2.4,-2.3,7.3,9,26.4,0,0,0,-26,81.2,27.4,26.4,57.1,57.8,0,0
0,71.673,71.673,0.714,0.723,26.5,0.927,2.4,-2.3,7.3,14,26.4,0,0,0,-29,81.2,27.4,26.4,57.1,57.8,0,0
0,71.678,71.678,0.714,0.723,26.5,0.927,2.4,-2.3,7.3,14,26.4,0,0,0,-29,81.2,27.4,26.4,57.1,57.8,0,0
0,71.683,71.683,0.792,0.719,26.5,0.955,0,-0.5,15,20,26.8,0,0,0,-29,80.8,28.4,26.8,55.8,56.1,0,0
0,71.688,71.688,0.792,0.719,26.5,0.955,0,-0.5,15,20,26.8,0,0,0,-29,80.8,28.4,26.8,55.8,56.1,0,0
0,71.693,71.693,0.792,0.719,26.5,0.955,0,-0.5,15,7,26.8,0,0,0,-32,80.8,28.4,26.8,55.8,56.1,0,0
0,71.698,71.698,0.792,0.719,26.5,0.955,0,-0.5,15,7,26.8,0,0,0,-32,80.8,28.4,26.8,55.8,56.1,0,0
0,71.703,71.703,0.82,0.702,26.5,0.946,3.3,0.5,18.4,28,27.2,0,0,0,-33,79,29.2,27.2,57.9,57,0,0
0,71.708,71.708,0.82,0.702,26.5,0.946,3.3,0.5,18.4,28,27.2,0,0,0,-33,79,29.2,27.2,57.9,57,0,0
0,71.713,71.713,0.82,0.702,26.5,0.946,3.3,0.5,18.4,70,27.2,0,0,0,-33,79,29.2,27.2,57.9,57,0,0
0,71.718,71.718,0.82,0.702,26.5,0.946,3.3,0.5,18.4,70,27.2,0,0,0,-33,79,29.2,27.2,57.9,57,0,0
0,71.723,71.723,0.745,0.685,26.5,0.99,-2.6,-0.5,24.4,47,27.4,0,0,0,-33,75.7,29.9,27.4,57.4,57.8,0,0
0,71.728,71.728,0.745,0.685,26.5,0.99,-2.6,-0.5,24.4,47,27.4,0,0,0,-33,75.7,29.9,27.4,57.4,57.8,0,0
0,71.733,71.733,0.745,0.685,26.5,0.99,-2.6,-0.5,24.4,12,27.4,0,0,0,-32,75.7,29.9,27.4,57.4,57.8,0,0
0,71.738,71.738,0.745,0.685,26.5,0.99,-2.6,-0.5,24.4,12,27.4,0,0,0,-32,75.7,29.9,27.4,57.4,57.8,0,0
0,71.743,71.743,0.759,0.715,26.5,0.966,-3.4,1.3,31,0,28.1,0,0,0,-32,75.3,30.9,28.1,55.9,55.6,0,0
0,71.748,71.748,0.759,0.715,26.5,0.966,-3.4,1.3,31,0,28.1,0,0,0,-32,75.3,30.9,28.1,55.9,55.6,0,0
0,71.753,71.753,0.759,0.715,26.5,0.966,-3.4,1.3,31,0,28.1,0,0,0,-31,75.3,30.9,28.1,55.9,55.6,0,0
0,71.758,71.758,0.759,0.715,26.5,0.966,-3.4,1.3,31,0,28.1,0,0,0,-31,75.3,30.9,28.1,55.9,55.6,0,0
0,71.763,71.763,0.741,0.743,26.5,0.896,-5,0.1,33.5,4,28.6,0,0,0,-31,78.2,31.6,28.6,57.7,56.9,0,0
0,71.768,71.768,0.741,0.743,26.5,0.896,-5,0.1,33.5,4,28.6,0,0,0,-31,78.2,31.6,28.6,57.7,56.9,0,0
0,71.773,71.773,0.741,0.743,26.5,0.896,-5,0.1,33.5,0,28.6,0,0,0,-30,78.2,31.6,28.6,57.7,56.9,0,0
0,71.778,71.778,0.741,0.743,26.5,0.896,-5,0.1,33.5,0,28.6,0,0,0,-30,78.2,31.6,28.6,57.7,56.9,0,0
0,71.783,71.783,0.565,0.749,26.5,0.806,-3.4,4.9,37.8,3,28.7,0,0,0,-29,80,32.4,28.7,57.2,58.8,0,0
0,71.788,71.788,0.565,0.749,26.5,0.806,-3.4,4.9,37.8,3,28.7,0,0,0,-29,80,32.4,28.7,57.2,58.8,0,0
0,71.793,71.793,0.565,0.749,26.5,0.806,-3.4,4.9,37.8,7,28.7,0,0,0,-29,80,32.4,28.7,57.2,58.8,0,0
0,71.798,71.798,0.565,0.749,26.5,0.806,-3.4,4.9,37.8,7,28.7,0,0,0,-29,80,32.4,28.7,57.2,58.8,0,0
0,71.803,71.803,0.843,0.73,26.5,0.945,0.1,4.3,46.5,25,29.5,0,0,0,-27,76.8,33.3,29.5,56.2,54.2,0,0
0,71.808,71.808,0.843,0.73,26.5,0.945,0.1,4.3,46.5,25,29.5,0,0,0,-27,76.8,33.3,29.5,56.2,54.2,0,0
0,71.813,71.813,0.843,0.73,26.5,0.945,0.1,4.3,46.5,0,29.5,0,0,0,-26,76.8,33.3,29.5,56.2,54.2,0,0
0,71.818,71.818,0.843,0.73,26.5,0.945,0.1,4.3,46.5,0,29.5,0,0,0,-26,76.8,33.3,29.5,56.2,54.2,0,0
0,71.823,71.823,0.927,0.807,26.5,0.991,0.7,4.1,48.2,9,30.1,0,0,0,-25,69.2,33.9,30.1,58.3,56.2,0,0
0,71.828,71.828,0.927,0.807,26.5,0.991,0.7,4.1,48.2,9,30.1,0,0,0,-25,69.2,33.9,30.1,58.3,56.2,0,0
0,71.833,71.833,0.927,0.807,26.5,0.991,0.7,4.1,48.2,25,30.1,0,0,0,-23,69.2,33.9,30.1,58.3,56.2,0,0
0,71.838,71.838,0.927,0.807,26.5,0.991,0.7,4.1,48.2,25,30.1,0,0,0,-23,69.2,33.9,30.1,58.3,56.2,0,0
0,71.843,71.843,0.748,0.837,26.5,0.987,1,4.7,47.3,23,30.3,0,0,0,-21,62.9,34.9,30.3,54.9,59.5,0,0
0,71.848,71.848,0.748,0.837,26.5,0.987,1,4.7,47.3,23,30.3,0,0,0,-21,62.9,34.9,30.3,54.9,59.5,0,0
0,71.853,71.853,0.748,0.837,26.5,0.987,1,4.7,47.3,22,30.3,0,0,0,-19,62.9,34.9,30.3,54.9,59.5,0,0
0,71.858,71.858,0.748,0.837,26.5,0.987,1,4.7,47.3,22,30.3,0,0,0,-19,62.9,34.9,30.3,54.9,59.5,0,0
0,71.863,71.863,0.81,0.806,27,0.988,-3,3,52.1,0,31.1,0,0,0,-17,63.8,35.2,31.1,56.9,55.5,0,0
0,71.868,71.868,0.81,0.806,27,0.988,-3,3,52.1,0,31.1,0,0,0,-17,63.8,35.2,31.1,56.9,55.5,0,0
0,71.873,71.873,0.81,0.806,27,0.988,-3,3,52.1,1,31.1,0,0,0,-15,63.8,35.2,31.1,56.9,55.5,0,0
0,71.878,71.878,0.81,0.806,27,0.988,-3,3,52.1,1,31.1,0,0,0,-15,63.8,35.2,31.1,56.9,55.5,0,0
0,71.883,71.883,0.832,0.784,26.5,0.982,-1.6,2.5,52.8,0,31.6,0,0,0,-13,67.5,35.8,31.6,57.9,54.5,0,0
0,71.888,71.888,0.832,0.784,26.5,0.982,-1.6,2.5,52.8,0,31.6,0,0,0,-13,67.5,35.8,31.6,57.9,54.5,0,0
0,71.893,71.893,0.832,0.784,26.5,0.982,-1.6,2.5,52.8,0,31.6,0,0,0,-13,67.5,35.8,31.6,57.9,54.5,0,0
0,71.898,71.898,0.832,0.784,26.5,0.982,-1.6,2.5,52.8,0,31.6,0,0,0,-13,67.5,35.8,31.6,57.9,54.5,0,0
0,71.903,71.903,0.785,0.811,26.5,0.918,-4.1,1.2,50.4,13,32.2,0,0,0,-9,70,36.4,32.2,53.7,58.6,0,0
0,71.908,71.908,0.785,0.811,26.5,0.918,-4.1,1.2,50.4,13,32.2,0,0,0,-9,70,36.4,32.2,53.7,58.6,0,0
0,71.913,71.913,0.785,0.811,26.5,0.918,-4.1,1.2,50.4,13,32.2,0,0,0,-6,70,36.4,32.2,53.7,58.6,0,0
0,71.918,71.918,0.785,0.811,26.5,0.918,-4.1,1.2,50.4,13,32.2,0,0,0,-6,70,36.4,32.2,53.7,58.6,0,0
0,71.923,71.923,0.87,0.827,26.5,1.004,-3.3,-1.8,51.6,9,33.2,0,0,0,-5,70.9,37,33.2,57.1,57,0,0
0,71.928,71.928,0.87,0.827,26.5,1.004,-3.3,-1.8,51.6,9,33.2,0,0,0,-5,70.9,37,33.2,57.1,57,0,0
0,71.933,71.933,0.87,0.827,26.5,1.004,-3.3,-1.8,51.6,9,33.2,0,0,0,-5,70.9,37,33.2,57.1,57,0,0
0,71.938,71.938,0.87,0.827,26.5,1.004,-3.3,-1.8,51.6,9,33.2,0,0,0,-5,70.9,37,33.2,57.1,57,0,0
0,71.943,71.943,0.672,0.875,26.5,0.851,-2.6,2.8,45.2,3,33.5,0,0,0,-3,71.5,37.7,33.5,57.7,55.1,0,0
0,71.948,71.948,0.672,0.875,26.5,0.851,-2.6,2.8,45.2,3,33.5,0,0,0,-3,71.5,37.7,33.5,57.7,55.1,0,0
0,71.953,71.953,0.672,0.875,26.5,0.851,-2.6,2.8,45.2,7,33.5,0,0,0,-2,71.5,37.7,33.5,57.7,55.1,0,0
0,71.958,71.958,0.672,0.875,26.5,0.851,-2.6,2.8,45.2,7,33.5,0,0,0,-2,71.5,37.7,33.5,57.7,55.1,0,0
0,71.963,71.963,0.788,0.876,26.5,0.902,-0.4,4.6,47.2,18,34.3,0,0,0,-1,71.4,38.1,34.3,54.5,58.1,0,0
0,71.968,71.968,0.788,0.876,26.5,0.902,-0.4,4.6,47.2,18,34.3,0,0,0,-1,71.4,38.1,34.3,54.5,58.1,0,0
0,71.973,71.973,0.788,0.876,26.5,0.902,-0.4,4.6,47.2,11,34.3,0,0,0,0,71.4,38.1,34.3,54.5,58.1,0,0
0,71.978,71.978,0.788,0.876,26.5,0.902,-0.4,4.6,47.2,11,34.3,0,0,0,0,71.4,38.1,34.3,54.5,58.1,0,0
0,71.983,71.983,1.074,0.878,26.5,1.064,1.5,2.3,48.6,0,35.1,0,0,0,2,68.2,38.8,35.1,57.9,55.1,0,0
0,71.988,71.988,1.074,0.878,26.5,1.064,1.5,2.3,48.6,0,35.1,0,0,0,2,68.2,38.8,35.1,57.9,55.1,0,0
0,71.993,71.993,1.074,0.878,26.5,1.064,1.5,2.3,48.6,12,35.1,0,0,0,3,68.2,38.8,35.1,57.9,55.1,0,0
0,71.998,71.998,1.074,0.878,26.5,1.064,1.5,2.3,48.6,12,35.1,0,0,0,3,68.2,38.8,35.1,57.9,55.1,0,0
0,72.003,72.003,0.881,0.854,26.5,1.035,-0.8,3.9,39.7,12,35.6,0,0,0,6,61.2,38.9,35.6,55.8,55.4,0,0
0,72.008,72.008,0.881,0.854,26.5,1.035,-0.8,3.9,39.7,12,35.6,0,0,0,6,61.2,38.9,35.6,55.8,55.4,0,0
0,72.013,72.013,0.881,0.854,26.5,1.035,-0.8,3.9,39.7,34,35.6,0,0,0,8,61.2,38.9,35.6,55.8,55.4,0,0
0,72.018,72.018,0.881,0.854,26.5,1.035,-0.8,3.9,39.7,34,35.6,0,0,0,8,61.2,38.9,35.6,55.8,55.4,0,0
0,72.023,72.023,0.864,0.82,27,0.955,0.1,2.8,39.8,11,36.3,0,0,0,11,57.9,39.7,36.3,54.8,57.9,0,0
0,72.028,72.028,0.864,0.82,27,0.955,0.1,2.8,39.8,11,36.3,0,0,0,11,57.9,39.7,36.3,54.8,57.9,0,0
0,72.033,72.033,0.864,0.82,27,0.955,0.1,2.8,39.8,5,36.3,0,0,0,15,57.9,39.7,36.3,54.8,57.9,0,0
0,72.038,72.038,0.864,0.82,27,0.955,0.1,2.8,39.8,5,36.3,0,0,0,15,57.9,39.7,36.3,54.8,57.9,0,0
0,72.043,72.043,0.769,0.764,27,0.877,-3.4,3.6,35.7,0,37.1,0,0,0,19,61.5,39.8,37.1,57.7,54.9,0,0
0,72.048,72.048,0.769,0.764,27,0.877,-3.4,3.6,35.7,0,37.1,0,0,0,19,61.5,39.8,37.1,57.7,54.9,0,0
0,72.053,72.053,0.769,0.764,27,0.877,-3.4,3.6,35.7,13,37.1,0,0,0,23,61.5,39.8,37.1,57.7,54.9,0,0
0,72.058,72.058,0.769,0.764,27,0.877,-3.4,3.6,35.7,13,37.1,0,0,0,23,61.5,39.8,37.1,57.7,54.9,0,0
0,72.063,72.063,0.553,0.87,26.5,0.857,-0.3,7.8,26.8,0,38,0,0,0,27,66,40,38,55.5,54,0,0
0,72.068,72.068,0.553,0.87,26.5,0.857,-0.3,7.8,26.8,0,38,0,0,0,27,66,40,38,55.5,54,0,0
0,72.073,72.073,0.553,0.87,26.5,0.857,-0.3,7.8,26.8,9,38,0,0,0,31,66,40,38,55.5,54,0,0
0,72.078,72.078,0.553,0.87,26.5,0.857,-0.3,7.8,26.8,9,38,0,0,0,31,66,40,38,55.5,54,0,0
0,72.083,72.083,0.772,0.884,26.5,1.049,-4,-1.5,23.5,8,39.3,0,0,0,35,65.9,39.9,39.3,55,55.9,0,0
0,72.088,72.088,0.772,0.884,26.5,1.049,-4,-1.5,23.5,8,39.3,0,0,0,35,65.9,39.9,39.3,55,55.9,0,0
0,72.093,72.093,0.772,0.884,26.5,1.049,-4,-1.5,23.5,13,39.3,0,0,0,38,65.9,39.9,39.3,55,55.9,0,0
0,72.098,72.098,0.772,0.884,26.5,1.049,-4,-1.5,23.5,13,39.3,0,0,0,38,65.9,39.9,39.3,55,55.9,0,0
0,72.103,72.103,0.585,0.956,26.5,1.049,0.5,3.1,9.4,8,40.4,0,0,0,41,60.2,40.3,40.4,56.1,56.6,0,0
0,72.108,72.108,0.585,0.956,26.5,1.049,0.5,3.1,9.4,8,40.4,0,0,0,41,60.2,40.3,40.4,56.1,56.6,0,0
0,72.113,72.113,0.585,0.956,26.5,1.049,0.5,3.1,9.4,10,40.4,0,0,0,42,60.2,40.3,40.4,56.1,56.6,0,0
0,72.118,72.118,0.585,0.956,26.5,1.049,0.5,3.1,9.4,10,40.4,0,0,0,42,60.2,40.3,40.4,56.1,56.6,0,0
0,72.123,72.123,0.559,0.979,26.5,1.072,4.1,0.6,-0.1,9,41.6,0,0,0,43,47.5,40.6,41.6,54.2,53.7,0,0
0,72.128,72.128,0.559,0.979,26.5,1.072,4.1,0.6,-0.1,9,41.6,0,0,0,43,47.5,40.6,41.6,54.2,53.7,0,0
0,72.133,72.133,0.559,0.979,26.5,1.072,4.1,0.6,-0.1,9,41.6,0,0,0,42,47.5,40.6,41.6,54.2,53.7,0,0
0,72.138,72.138,0.559,0.979,26.5,1.072,4.1,0.6,-0.1,9,41.6,0,0,0,42,47.5,40.6,41.6,54.2,53.7,0,0
0,72.143,72.143,0.668,0.931,27,1.018,0.1,-0.6,-7.3,11,42.6,0,0,0,42,35.7,41.1,42.6,54.9,54.5,0,0
0,72.148,72.148,0.668,0.931,27,1.018,0.1,-0.6,-7.3,11,42.6,0,0,0,42,35.7,41.1,42.6,54.9,54.5,0,0
0,72.153,72.153,0.668,0.931,27,1.018,0.1,-0.6,-7.3,8,42.6,0,0,0,39,35.7,41.1,42.6,54.9,54.5,0,0
0,72.158,72.158,0.668,0.931,27,1.018,0.1,-0.6,-7.3,8,42.6,0,0,0,39,35.7,41.1,42.6,54.9,54.5,0,0
0,72.163,72.163,0.609,0.827,27,0.986,0.3,0.8,-21.9,8,43.5,0,0,0,37,30,41.6,43.5,50.6,53,0,0
0,72.168,72.168,0.609,0.827,27,0.986,0.3,0.8,-21.9,8,43.5,0,0,0,37,30,41.6,43.5,50.6,53,0,0
0,72.173,72.173,0.609,0.827,27,0.986,0.3,0.8,-21.9,0,43.5,0,0,0,32,30,41.6,43.5,50.6,53,0,0
0,72.178,72.178,0.609,0.827,27,0.986,0.3,0.8,-21.9,0,43.5,0,0,0,32,30,41.6,43.5,50.6,53,0,0
0,72.183,72.183,0.784,0.735,26.5,0.856,-2.2,-5.2,-27.5,27,44,0,0,0,27,20.5,42.3,44,49.6,48,0,0
0,72.188,72.188,0.784,0.735,26.5,0.856,-2.2,-5.2,-27.5,27,44,0,0,0,27,20.5,42.3,44,49.6,48,0,0
0,72.193,72.193,0.784,0.735,26.5,0.856,-2.2,-5.2,-27.5,0,44,0,0,0,20,20.5,42.3,44,49.6,48,0,0
0,72.198,72.198,0.784,0.735,26.5,0.856,-2.2,-5.2,-27.5,0,44,0,0,0,20,20.5,42.3,44,49.6,48,0,0
0,72.203,72.203,0.914,0.687,26.5,0.894,-2.9,-6.4,-29.3,7,44.4,0,0,0,15,14.8,42.8,44.4,44.6,46.3,0,0
0,72.208,72.208,0.914,0.687,26.5,0.894,-2.9,-6.4,-29.3,7,44.4,0,0,0,15,14.8,42.8,44.4,44.6,46.3,0,0
0,72.213,72.213,0.914,0.687,26.5,0.894,-2.9,-6.4,-29.3,40,44.4,0,0,0,9,14.8,42.8,44.4,44.6,46.3,0,0
0,72.218,72.218,0.914,0.687,26.5,0.894,-2.9,-6.4,-29.3,40,44.4,0,0,0,9,14.8,42.8,44.4,44.6,46.3,0,0
0,72.223,72.223,0.906,0.44,26.5,0.849,-1.4,-4.7,-32.8,10,44.6,0,0,0,4,18.7,43,44.6,44.1,45.5,0,0
0,72.228,72.228,0.906,0.44,26.5,0.849,-1.4,-4.7,-32.8,10,44.6,0,0,0,4,18.7,43,44.6,44.1,45.5,0,0
0,72.233,72.233,0.906,0.44,26.5,0.849,-1.4,-4.7,-32.8,8,44.6,0,0,0,-2,18.7,43,44.6,44.1,45.5,0,0
0,72.238,72.238,0.906,0.44,26.5,0.849,-1.4,-4.7,-32.8,8,44.6,0,0,0,-2,18.7,43,44.6,44.1,45.5,0,0
0,72.243,72.243,0.952,-0.109,26.5,0.905,-9.6,-5.5,-23.6,7,44.6,0,0,0,-7,23.9,43.6,44.6,43.6,45.2,0,0
0,72.248,72.248,0.952,-0.109,26.5,0.905,-9.6,-5.5,-23.6,7,44.6,0,0,0,-7,23.9,43.6,44.6,43.6,45.2,0,0
0,72.253,72.253,0.952,-0.109,26.5,0.905,-9.6,-5.5,-23.6,7,44.6,0,0,0,-12,23.9,43.6,44.6,43.6,45.2,0,0
0,72.258,72.258,0.952,-0.109,26.5,0.905,-9.6,-5.5,-23.6,7,44.6,0,0,0,-12,23.9,43.6,44.6,43.6,45.2,0,0
0,72.263,72.263,0.965,-0.349,26.5,0.861,-7.5,-3.1,-16.2,8,43.9,0,0,0,-17,34.2,43.5,43.9,43.6,44.5,0,0
0,72.268,72.268,0.965,-0.349,26.5,0.861,-7.5,-3.1,-16.2,8,43.9,0,0,0,-17,34.2,43.5,43.9,43.6,44.5,0,0
0,72.273,72.273,0.965,-0.349,26.5,0.861,-7.5,-3.1,-16.2,8,43.9,0,0,0,-22,34.2,43.5,43.9,43.6,44.5,0,0
0,72.278,72.278,0.965,-0.349,26.5,0.861,-7.5,-3.1,-16.2,8,43.9,0,0,0,-22,34.2,43.5,43.9,43.6,44.5,0,0
0,72.283,72.283,0.931,-0.417,26.5,0.861,-9.3,-2.5,-4.5,8,43.3,0,0,0,-25,50.3,44.1,43.3,44.1,44.1,0,0
0,72.288,72.288,0.931,-0.417,26.5,0.861,-9.3,-2.5,-4.5,8,43.3,0,0,0,-25,50.3,44.1,43.3,44.1,44.1,0,0
0,72.293,72.293,0.931,-0.417,26.5,0.861,-9.3,-2.5,-4.5,8,43.3,0,0,0,-28,50.3,44.1,43.3,44.1,44.1,0,0
0,72.298,72.298,0.931,-0.417,26.5,0.861,-9.3,-2.5,-4.5,8,43.3,0,0,0,-28,50.3,44.1,43.3,44.1,44.1,0,0
0,72.303,72.303,1.013,-0.324,26.5,0.899,-7.4,-5,9.4,7,43,0,0,0,-29,65.5,44.5,43,44.4,43,0,0
0,72.308,72.308,1.013,-0.324,26.5,0.899,-7.4,-5,9.4,7,43,0,0,0,-29,65.5,44.5,43,44.4,43,0,0
0,72.313,72.313,1.013,-0.324,26.5,0.899,-7.4,-5,9.4,8,43,0,0,0,-30,65.5,44.5,43,44.4,43,0,0
0,72.318,72.318,1.013,-0.324,26.5,0.899,-7.4,-5,9.4,8,43,0,0,0,-30,65.5,44.5,43,44.4,43,0,0
0,72.323,72.323,1.299,-0.509,26.5,1.01,-7.1,-6.9,27.8,8,42.5,0,0,0,-30,79.4,45.2,42.5,44.1,42.2,0,0
0,72.328,72.328,1.299,-0.509,26.5,1.01,-7.1,-6.9,27.8,8,42.5,0,0,0,-30,79.4,45.2,42.5,44.1,42.2,0,0
0,72.333,72.333,1.299,-0.509,26.5,1.01,-7.1,-6.9,27.8,8,42.5,0,0,0,-29,79.4,45.2,42.5,44.1,42.2,0,0
0,72.338,72.338,1.299,-0.509,26.5,1.01,-7.1,-6.9,27.8,8,42.5,0,0,0,-29,79.4,45.2,42.5,44.1,42.2,0,0
0,72.343,72.343,1.01,-0.741,26.5,0.842,-9.5,-3.9,29.3,8,42.1,0,0,0,-29,92.7,44.9,42.1,43.6,38.7,0,0
0,72.348,72.348,1.01,-0.741,26.5,0.842,-9.5,-3.9,29.3,8,42.1,0,0,0,-29,92.7,44.9,42.1,43.6,38.7,0,0
0,72.353,72.353,1.01,-0.741,26.5,0.842,-9.5,-3.9,29.3,8,42.1,0,0,0,-28,92.7,44.9,42.1,43.6,38.7,0,0
0,72.358,72.358,1.01,-0.741,26.5,0.842,-9.5,-3.9,29.3,8,42.1,0,0,0,-28,92.7,44.9,42.1,43.6,38.7,0,0
0,72.363,72.363,1.111,-0.705,26.5,0.843,-4.3,1.2,40.2,8,41.6,0,0,0,-27,96.2,44.5,41.6,43.6,36.8,0,0
0,72.368,72.368,1.111,-0.705,26.5,0.843,-4.3,1.2,40.2,8,41.6,0,0,0,-27,96.2,44.5,41.6,43.6,36.8,0,0
0,72.373,72.373,1.111,-0.705,26.5,0.843,-4.3,1.2,40.2,8,41.6,0,0,0,-26,96.2,44.5,41.6,43.6,36.8,0,0
0,72.378,72.378,1.111,-0.705,26.5,0.843,-4.3,1.2,40.2,8,41.6,0,0,0,-26,96.2,44.5,41.6,43.6,36.8,0,0
0,72.383,72.383,1.211,-0.416,26.5,0.905,5.5,1.8,41.2,8,41.3,0,0,0,-25,93.3,44.6,41.3,44.4,39.8,0,0
0,72.388,72.388,1.211,-0.416,26.5,0.905,5.5,1.8,41.2,8,41.3,0,0,0,-25,93.3,44.6,41.3,44.4,39.8,0,0
0,72.393,72.393,1.211,-0.416,26.5,0.905,5.5,1.8,41.2,8,41.3,0,0,0,-24,93.3,44.6,41.3,44.4,39.8,0,0
0,72.398,72.398,1.211,-0.416,26.5,0.905,5.5,1.8,41.2,8,41.3,0,0,0,-24,93.3,44.6,41.3,44.4,39.8,0,0
0,72.403,72.403,1.269,-0.089,26.5,0.875,8.8,4.2,39.9,8,41.2,0,0,0,-24,92.5,44.4,41.2,44.5,41.4,0,0
0,72.408,72.408,1.269,-0.089,26.5,0.875,8.8,4.2,39.9,8,41.2,0,0,0,-24,92.5,44.4,41.2,44.5,41.4,0,0
0,72.413,72.413,1.269,-0.089,26.5,0.875,8.8,4.2,39.9,8,41.2,0,0,0,-23,92.5,44.4,41.2,44.5,41.4,0,0
0,72.418,72.418,1.269,-0.089,26.5,0.875,8.8,4.2,39.9,8,41.2,0,0,0,-23,92.5,44.4,41.2,44.5,41.4,0,0
0,72.423,72.423,1.102,-0.179,26.5,0.83,2.5,0.8,37.8,8,41.2,0,0,0,-23,92.3,44.4,41.2,44.2,41.6,0,0
0,72.428,72.428,1.102,-0.179,26.5,0.83,2.5,0.8,37.8,8,41.2,0,0,0,-23,92.3,44.4,41.2,44.2,41.6,0,0
0,72.433,72.433,1.102,-0.179,26.5,0.83,2.5,0.8,37.8,8,41.2,0,0,0,-22,92.3,44.4,41.2,44.2,41.6,0,0
0,72.438,72.438,1.102,-0.179,26.5,0.83,2.5,0.8,37.8,8,41.2,0,0,0,-22,92.3,44.4,41.2,44.2,41.6,0,0
0,72.443,72.443,1.503,0.299,27,1.15,16.9,1.2,39.8,8,41.5,0,0,0,-21,90.4,44,41.5,45.8,44.2,0,0
0,72.448,72.448,1.503,0.299,27,1.15,16.9,1.2,39.8,8,41.5,0,0,0,-21,90.4,44,41.5,45.8,44.2,0,0
0,72.453,72.453,1.503,0.299,27,1.15,16.9,1.2,39.8,11,41.5,0,0,0,-21,90.4,44,41.5,45.8,44.2,0,0
0,72.458,72.458,1.503,0.299,27,1.15,16.9,1.2,39.8,11,41.5,0,0,0,-21,90.4,44,41.5,45.8,44.2,0,0
0,72.463,72.463,0.912,0.894,26.5,1.011,6.5,3.3,17.8,8,41.8,0,0,0,-21,85.4,44.5,41.8,48.3,55.8,0,0
0,72.468,72.468,0.912,0.894,26.5,1.011,6.5,3.3,17.8,8,41.8,0,0,0,-21,85.4,44.5,41.8,48.3,55.8,0,0
0,72.473,72.473,0.912,0.894,26.5,1.011,6.5,3.3,17.8,9,41.8,0,0,0,-20,85.4,44.5,41.8,48.3,55.8,0,0
0,72.478,72.478,0.912,0.894,26.5,1.011,6.5,3.3,17.8,9,41.8,0,0,0,-20,85.4,44.5,41.8,48.3,55.8,0,0
0,72.483,72.483,0.813,0.924,26.5,1.032,13.7,6.1,30.2,8,42.8,0,0,0,-19,80.7,45.4,42.8,53,57.5,0,0
0,72.488,72.488,0.813,0.924,26.5,1.032,13.7,6.1,30.2,8,42.8,0,0,0,-19,80.7,45.4,42.8,53,57.5,0,0
0,72.493,72.493,0.813,0.924,26.5,1.032,13.7,6.1,30.2,8,42.8,0,0,0,-18,80.7,45.4,42.8,53,57.5,0,0
0,72.498,72.498,0.813,0.924,26.5,1.032,13.7,6.1,30.2,8,42.8,0,0,0,-18,80.7,45.4,42.8,53,57.5,0,0
0,72.503,72.503,0.993,0.864,26.5,1.203,12.5,-2.4,42.2,8,43.3,0,0,0,-16,77.7,46.3,43.3,50.8,46.1,0,0
0,72.508,72.508,0.993,0.864,26.5,1.203,12.5,-2.4,42.2,8,43.3,0,0,0,-16,77.7,46.3,43.3,50.8,46.1,0,0
0,72.513,72.513,0.993,0.864,26.5,1.203,12.5,-2.4,42.2,8,43.3,0,0,0,-14,77.7,46.3,43.3,50.8,46.1,0,0
0,72.518,72.518,0.993,0.864,26.5,1.203,12.5,-2.4,42.2,8,43.3,0,0,0,-14,77.7,46.3,43.3,50.8,46.1,0,0
0,72.523,72.523,1.27,0.852,26.5,1.251,15.6,-1.7,33.9,8,43.9,0,0,0,-14,76.4,46.5,43.9,52.4,53,0,0
0,72.528,72.528,1.27,0.852,26.5,1.251,15.6,-1.7,33.9,8,43.9,0,0,0,-14,76.4,46.5,43.9,52.4,53,0,0
0,72.533,72.533,1.27,0.852,26.5,1.251,15.6,-1.7,33.9,8,43.9,0,0,0,-12,76.4,46.5,43.9,52.4,53,0,0
0,72.538,72.538,1.27,0.852,26.5,1.251,15.6,-1.7,33.9,8,43.9,0,0,0,-12,76.4,46.5,43.9,52.4,53,0,0
0,72.543,72.543,0.585,0.878,26.5,0.845,5.3,1.4,22.7,0,44.5,0,0,0,-11,76.6,47.4,44.5,52.2,59.5,0,0
0,72.548,72.548,0.585,0.878,26.5,0.845,5.3,1.4,22.7,0,44.5,0,0,0,-11,76.6,47.4,44.5,52.2,59.5,0,0
0,72.553,72.553,0.585,0.878,26.5,0.845,5.3,1.4,22.7,0,44.5,0,0,0,-9,76.6,47.4,44.5,52.2,59.5,0,0
0,72.558,72.558,0.585,0.878,26.5,0.845,5.3,1.4,22.7,0,44.5,0,0,0,-9,76.6,47.4,44.5,52.2,59.5,0,0
0,72.563,72.563,0.921,0.747,27,0.895,1.8,-4.3,39.2,5,45.2,0,0,0,-8,78.9,47.5,45.2,51.8,51.6,0,0
0,72.568,72.568,0.921,0.747,27,0.895,1.8,-4.3,39.2,5,45.2,0,0,0,-8,78.9,47.5,45.2,51.8,51.6,0,0
0,72.573,72.573,0.921,0.747,27,0.895,1.8,-4.3,39.2,10,45.2,0,0,0,-7,78.9,47.5,45.2,51.8,51.6,0,0
0,72.578,72.578,0.921,0.747,27,0.895,1.8,-4.3,39.2,10,45.2,0,0,0,-7,78.9,47.5,45.2,51.8,51.6,0,0
0,72.583,72.583,1.316,0.708,26.5,0.813,-4.1,-3.9,31.3,19,46,0,0,0,-6,87.4,47.8,46,52.6,50.2,0,0
0,72.588,72.588,1.316,0.708,26.5,0.813,-4.1,-3.9,31.3,19,46,0,0,0,-6,87.4,47.8,46,52.6,50.2,0,0
0,72.593,72.593,1.316,0.708,26.5,0.813,-4.1,-3.9,31.3,5,46,0,0,0,-5,87.4,47.8,46,52.6,50.2,0,0
0,72.598,72.598,1.316,0.708,26.5,0.813,-4.1,-3.9,31.3,5,46,0,0,0,-5,87.4,47.8,46,52.6,50.2,0,0
0,72.603,72.603,0.804,0.843,26.5,0.848,1.2,2.6,12.7,3,46.7,0,0,0,-4,96.4,48.5,46.7,52.2,56.4,0,0
0,72.608,72.608,0.804,0.843,26.5,0.848,1.2,2.6,12.7,3,46.7,0,0,0,-4,96.4,48.5,46.7,52.2,56.4,0,0
0,72.613,72.613,0.804,0.843,26.5,0.848,1.2,2.6,12.7,0,46.7,0,0,0,-3,96.4,48.5,46.7,52.2,56.4,0,0
0,72.618,72.618,0.804,0.843,26.5,0.848,1.2,2.6,12.7,0,46.7,0,0,0,-3,96.4,48.5,46.7,52.2,56.4,0,0
0,72.623,72.623,0.897,0.826,27,0.931,-4.7,-7.6,24.5,0,47.4,0,0,0,-2,97.9,48.9,47.4,53.8,52.5,0,0
0,72.628,72.628,0.897,0.826,27,0.931,-4.7,-7.6,24.5,0,47.4,0,0,0,-2,97.9,48.9,47.4,53.8,52.5,0,0
0,72.633,72.633,0.897,0.826,27,0.931,-4.7,-7.6,24.5,0,47.4,0,0,0,-2,97.9,48.9,47.4,53.8,52.5,0,0
0,72.638,72.638,0.897,0.826,27,0.931,-4.7,-7.6,24.5,0,47.4,0,0,0,-2,97.9,48.9,47.4,53.8,52.5,0,0
0,72.643,72.643,1.154,0.783,26.5,0.958,-7.3,-9.6,23.1,0,48,0,0,0,-1,97.7,49.3,48,53.2,51.2,0,0
0,72.648,72.648,1.154,0.783,26.5,0.958,-7.3,-9.6,23.1,0,48,0,0,0,-1,97.7,49.3,48,53.2,51.2,0,0
0,72.653,72.653,1.154,0.783,26.5,0.958,-7.3,-9.6,23.1,9,48,0,0,0,-1,97.7,49.3,48,53.2,51.2,0,0
0,72.658,72.658,1.154,0.783,26.5,0.958,-7.3,-9.6,23.1,9,48,0,0,0,-1,97.7,49.3,48,53.2,51.2,0,0
0,72.663,72.663,0.736,0.843,27,0.991,-3,-6.2,7.3,8,49.1,0,0,0,-1,97.6,50.1,49.1,52.8,53.9,0,0
0,72.668,72.668,0.736,0.843,27,0.991,-3,-6.2,7.3,8,49.1,0,0,0,-1,97.6,50.1,49.1,52.8,53.9,0,0
0,72.673,72.673,0.736,0.843,27,0.991,-3,-6.2,7.3,9,49.1,0,0,0,-1,97.6,50.1,49.1,52.8,53.9,0,0
0,72.678,72.678,0.736,0.843,27,0.991,-3,-6.2,7.3,9,49.1,0,0,0,-1,97.6,50.1,49.1,52.8,53.9,0,0
0,72.683,72.683,0.602,0.809,26.5,0.93,-7.7,-4.9,11.3,9,49.7,0,0,0,0,97.2,50.7,49.7,54.6,54.6,0,0
0,72.688,72.688,0.602,0.809,26.5,0.93,-7.7,-4.9,11.3,9,49.7,0,0,0,0,97.2,50.7,49.7,54.6,54.6,0,0
0,72.693,72.693,0.602,0.809,26.5,0.93,-7.7,-4.9,11.3,0,49.7,0,0,0,1,97.2,50.7,49.7,54.6,54.6,0,0
0,72.698,72.698,0.602,0.809,26.5,0.93,-7.7,-4.9,11.3,0,49.7,0,0,0,1,97.2,50.7,49.7,54.6,54.6,0,0
0,72.703,72.703,0.858,0.726,26.5,1.107,0.5,-0.1,8.5,10,50.8,0,0,0,1,96.6,51.1,50.8,54.5,52.3,0,0
0,72.708,72.708,0.858,0.726,26.5,1.107,0.5,-0.1,8.5,10,50.8,0,0,0,1,96.6,51.1,50.8,54.5,52.3,0,0
0,72.713,72.713,0.858,0.726,26.5,1.107,0.5,-0.1,8.5,11,50.8,0,0,0,2,96.6,51.1,50.8,54.5,52.3,0,0
0,72.718,72.718,0.858,0.726,26.5,1.107,0.5,-0.1,8.5,11,50.8,0,0,0,2,96.6,51.1,50.8,54.5,52.3,0,0
0,72.723,72.723,0.903,0.767,26.5,1.229,5.6,-0.4,6.4,12,51.3,0,0,0,2,95.7,51.7,51.3,54,53,0,0
0,72.728,72.728,0.903,0.767,26.5,1.229,5.6,-0.4,6.4,12,51.3,0,0,0,2,95.7,51.7,51.3,54,53,0,0
0,72.733,72.733,0.903,0.767,26.5,1.229,5.6,-0.4,6.4,9,51.3,0,0,0,2,95.7,51.7,51.3,54,53,0,0
0,72.738,72.738,0.903,0.767,26.5,1.229,5.6,-0.4,6.4,9,51.3,0,0,0,2,95.7,51.7,51.3,54,53,0,0
0,72.743,72.743,0.438,0.857,26.5,1.022,1.8,-1.7,-1.3,17,52,0,0,0,3,93.4,52.1,52,54.9,54.5,0,0
0,72.748,72.748,0.438,0.857,26.5,1.022,1.8,-1.7,-1.3,17,52,0,0,0,3,93.4,52.1,52,54.9,54.5,0,0
0,72.753,72.753,0.438,0.857,26.5,1.022,1.8,-1.7,-1.3,22,52,0,0,0,4,93.4,52.1,52,54.9,54.5,0,0
0,72.758,72.758,0.438,0.857,26.5,1.022,1.8,-1.7,-1.3,22,52,0,0,0,4,93.4,52.1,52,54.9,54.5,0,0
0,72.763,72.763,0.423,0.79,26.5,0.903,2.7,-3.6,-3.6,17,53,0,0,0,5,91.6,52.3,53,55.2,55.4,0,0
0,72.768,72.768,0.423,0.79,26.5,0.903,2.7,-3.6,-3.6,17,53,0,0,0,5,91.6,52.3,53,55.2,55.4,0,0
0,72.773,72.773,0.423,0.79,26.5,0.903,2.7,-3.6,-3.6,10,53,0,0,0,6,91.6,52.3,53,55.2,55.4,0,0
0,72.778,72.778,0.423,0.79,26.5,0.903,2.7,-3.6,-3.6,10,53,0,0,0,6,91.6,52.3,53,55.2,55.4,0,0
0,72.783,72.783,0.367,0.653,26.5,1.008,6.5,-1.9,-0.7,0,53.1,0,0,0,8,91,53,53.1,55.2,55,0,0
0,72.788,72.788,0.367,0.653,26.5,1.008,6.5,-1.9,-0.7,0,53.1,0,0,0,8,91,53,53.1,55.2,55,0,0
0,72.793,72.793,0.367,0.653,26.5,1.008,6.5,-1.9,-0.7,0,53.1,0,0,0,10,91,53,53.1,55.2,55,0,0
0,72.798,72.798,0.367,0.653,26.5,1.008,6.5,-1.9,-0.7,0,53.1,0,0,0,10,91,53,53.1,55.2,55,0,0
0,72.803,72.803,0.383,0.614,26.5,1.123,3.7,4.9,-4.4,0,54.1,0,0,0,11,85.3,53,54.1,55.4,55.7,0,0
0,72.808,72.808,0.383,0.614,26.5,1.123,3.7,4.9,-4.4,0,54.1,0,0,0,11,85.3,53,54.1,55.4,55.7,0,0
0,72.813,72.813,0.383,0.614,26.5,1.123,3.7,4.9,-4.4,32,54.1,0,0,0,11,85.3,53,54.1,55.4,55.7,0,0
0,72.818,72.818,0.383,0.614,26.5,1.123,3.7,4.9,-4.4,32,54.1,0,0,0,11,85.3,53,54.1,55.4,55.7,0,0
0,72.823,72.823,0.599,0.581,26.5,1.088,-1.9,2,-6.1,36,54.5,0,0,0,12,66.9,53.6,54.5,55.8,55.9,0,0
0,72.828,72.828,0.599,0.581,26.5,1.088,-1.9,2,-6.1,36,54.5,0,0,0,12,66.9,53.6,54.5,55.8,55.9,0,0
0,72.833,72.833,0.599,0.581,26.5,1.088,-1.9,2,-6.1,0,54.5,0,0,0,12,66.9,53.6,54.5,55.8,55.9,0,0
0,72.838,72.838,0.599,0.581,26.5,1.088,-1.9,2,-6.1,0,54.5,0,0,0,12,66.9,53.6,54.5,55.8,55.9,0,0
0,72.843,72.843,0.081,0.541,26.5,0.903,-7.2,3.1,-10.7,14,54.8,0,0,0,12,46.9,53.8,54.8,56.4,56.2,0,0
0,72.848,72.848,0.081,0.541,26.5,0.903,-7.2,3.1,-10.7,14,54.8,0,0,0,12,46.9,53.8,54.8,56.4,56.2,0,0
0,72.853,72.853,0.081,0.541,26.5,0.903,-7.2,3.1,-10.7,0,54.8,0,0,0,12,46.9,53.8,54.8,56.4,56.2,0,0
0,72.858,72.858,0.081,0.541,26.5,0.903,-7.2,3.1,-10.7,0,54.8,0,0,0,12,46.9,53.8,54.8,56.4,56.2,0,0
0,72.863,72.863,0.122,0.405,26.5,0.813,-6.1,6.1,-17.4,0,55.8,0,0,0,12,30.4,54.1,55.8,56.9,57,0,0
0,72.868,72.868,0.122,0.405,26.5,0.813,-6.1,6.1,-17.4,0,55.8,0,0,0,12,30.4,54.1,55.8,56.9,57,0,0
0,72.873,72.873,0.122,0.405,26.5,0.813,-6.1,6.1,-17.4,11,55.8,0,0,0,12,30.4,54.1,55.8,56.9,57,0,0
0,72.878,72.878,0.122,0.405,26.5,0.813,-6.1,6.1,-17.4,11,55.8,0,0,0,12,30.4,54.1,55.8,56.9,57,0,0
0,72.883,72.883,0.191,-0.115,26.5,0.816,-12.3,3.9,-7.9,12,55.8,0,0,0,12,13.6,54.7,55.8,55.4,55.8,0,0
0,72.888,72.888,0.191,-0.115,26.5,0.816,-12.3,3.9,-7.9,12,55.8,0,0,0,12,13.6,54.7,55.8,55.4,55.8,0,0
0,72.893,72.893,0.191,-0.115,26.5,0.816,-12.3,3.9,-7.9,9,55.8,0,0,0,11,13.6,54.7,55.8,55.4,55.8,0,0
0,72.898,72.898,0.191,-0.115,26.5,0.816,-12.3,3.9,-7.9,9,55.8,0,0,0,11,13.6,54.7,55.8,55.4,55.8,0,0
0,72.903,72.903,0.283,-0.323,26.5,0.879,-9.1,1.5,-6.5,9,55.8,0,0,0,11,13.3,54.5,55.8,54.8,55.9,0,0
0,72.908,72.908,0.283,-0.323,26.5,0.879,-9.1,1.5,-6.5,9,55.8,0,0,0,11,13.3,54.5,55.8,54.8,55.9,0,0
0,72.913,72.913,0.283,-0.323,26.5,0.879,-9.1,1.5,-6.5,8,55.8,0,0,0,11,13.3,54.5,55.8,54.8,55.9,0,0
0,72.918,72.918,0.283,-0.323,26.5,0.879,-9.1,1.5,-6.5,8,55.8,0,0,0,11,13.3,54.5,55.8,54.8,55.9,0,0
0,72.923,72.923,0.177,-0.55,26.5,0.809,-10.7,-0.6,-14.7,8,55.2,0,0,0,11,21.4,53.1,55.2,54.4,55.6,0,0
0,72.928,72.928,0.177,-0.55,26.5,0.809,-10.7,-0.6,-14.7,8,55.2,0,0,0,11,21.4,53.1,55.2,54.4,55.6,0,0
0,72.933,72.933,0.177,-0.55,26.5,0.809,-10.7,-0.6,-14.7,8,55.2,0,0,0,11,21.4,53.1,55.2,54.4,55.6,0,0
0,72.938,72.938,0.177,-0.55,26.5,0.809,-10.7,-0.6,-14.7,8,55.2,0,0,0,11,21.4,53.1,55.2,54.4,55.6,0,0
0,72.943,72.943,-0.079,-0.704,26.5,0.757,-12,-2.2,-12,8,54.9,0,0,0,11,21.5,53.6,54.9,52.8,53.7,0,0
0,72.948,72.948,-0.079,-0.704,26.5,0.757,-12,-2.2,-12,8,54.9,0,0,0,11,21.5,53.6,54.9,52.8,53.7,0,0
0,72.953,72.953,-0.079,-0.704,26.5,0.757,-12,-2.2,-12,8,54.9,0,0,0,11,21.5,53.6,54.9,52.8,53.7,0,0
0,72.958,72.958,-0.079,-0.704,26.5,0.757,-12,-2.2,-12,8,54.9,0,0,0,11,21.5,53.6,54.9,52.8,53.7,0,0
0,72.963,72.963,0.234,-0.962,26.5,0.697,-12.2,-5.9,-6.4,8,54.2,0,0,0,12,19.6,52.7,54.2,48.6,51.9,0,0
0,72.968,72.968,0.234,-0.962,26.5,0.697,-12.2,-5.9,-6.4,8,54.2,0,0,0,12,19.6,52.7,54.2,48.6,51.9,0,0
0,72.973,72.973,0.234,-0.962,26.5,0.697,-12.2,-5.9,-6.4,8,54.2,0,0,0,13,19.6,52.7,54.2,48.6,51.9,0,0
0,72.978,72.978,0.234,-0.962,26.5,0.697,-12.2,-5.9,-6.4,8,54.2,0,0,0,13,19.6,52.7,54.2,48.6,51.9,0,0
0,72.983,72.983,0.21,-0.908,26.5,0.752,-10.6,0.6,-10.2,8,54,0,0,0,15,20.1,52.4,54,41.5,47.5,0,0
0,72.988,72.988,0.21,-0.908,26.5,0.752,-10.6,0.6,-10.2,8,54,0,0,0,15,20.1,52.4,54,41.5,47.5,0,0
0,72.993,72.993,0.21,-0.908,26.5,0.752,-10.6,0.6,-10.2,8,54,0,0,0,16,20.1,52.4,54,41.5,47.5,0,0
0,72.998,72.998,0.21,-0.908,26.5,0.752,-10.6,0.6,-10.2,8,54,0,0,0,16,20.1,52.4,54,41.5,47.5,0,0
0,73.003,73.003,-0.007,-0.749,26.5,0.902,-0.7,5,-18.2,8,53.8,0,0,0,17,20.4,51.5,53.8,43.2,51.3,0,0
0,73.008,73.008,-0.007,-0.749,26.5,0.902,-0.7,5,-18.2,8,53.8,0,0,0,17,20.4,51.5,53.8,43.2,51.3,0,0
0,73.013,73.013,-0.007,-0.749,26.5,0.902,-0.7,5,-18.2,8,53.8,0,0,0,18,20.4,51.5,53.8,43.2,51.3,0,0
0,73.018,73.018,-0.007,-0.749,26.5,0.902,-0.7,5,-18.2,8,53.8,0,0,0,18,20.4,51.5,53.8,43.2,51.3,0,0
0,73.023,73.023,-0.017,-0.89,26.5,0.928,-3.7,3.4,-23,8,53.5,0,0,0,18,20.5,50.6,53.5,44.1,52.1,0,0
0,73.028,73.028,-0.017,-0.89,26.5,0.928,-3.7,3.4,-23,8,53.5,0,0,0,18,20.5,50.6,53.5,44.1,52.1,0,0
0,73.033,73.033,-0.017,-0.89,26.5,0.928,-3.7,3.4,-23,8,53.5,0,0,0,18,20.5,50.6,53.5,44.1,52.1,0,0
0,73.038,73.038,-0.017,-0.89,26.5,0.928,-3.7,3.4,-23,8,53.5,0,0,0,18,20.5,50.6,53.5,44.1,52.1,0,0
